,Address,Housing Price,City,Longitude,Latitude,SQ Ft,Housing Price/SQ Ft,Norm Price,dist_hospitals,dist_gym,dist_cemetary,dist_parks,dist_beaches,dist_shopping,dist_grocery,dist_resturant,dist_golf,dist_school
470,"609 S Vicki Ln, Anaheim, CA 92804",0.007100274300240475,Anaheim,33.824412,-117.984391,1964.0,381.87372708757636,0.00978464933447963,21450.210763028954,21455.250443907196,21414.207032375238,21462.00505270247,21411.929995706258,21453.644324636978,21453.644324636978,21455.115245970097,19603.693109601627,21453.02592855135
471,"841 S Philadelphia St, Anaheim, CA 92805",0.013253835893416487,Anaheim,33.825846,-117.908379,3012.0,464.80710491367864,0.012381953957424382,21444.936761785062,21449.97271970068,21408.934744295566,21456.734891970405,21406.657859299452,21448.367376713173,21448.367376713173,21449.837364780386,19597.87650070434,21447.747865414567
472,"310 S Mohler Dr, Anaheim, CA 92808",0.021300822900721425,Anaheim,33.858326,-117.760019,4035.0,557.6208178438661,0.015288690569210747,21436.74699324584,21441.774250258513,21400.74898751345,21448.554092738188,21398.47245744336,21440.170721812963,21440.170721812963,21441.638528500418,19588.396810505983,21439.548604447402
473,"2300 S Lewis St, Spc 79, Anaheim, CA 92802",0.0014664433188096662,Anaheim,33.791593,-117.897023,1100.0,140.8181818181818,0.002235280208004585,21441.71173264143,21446.748792738374,21405.709208484957,21453.508728278706,21403.432278660428,21445.143219746187,21445.143219746187,21446.613484339203,19594.838061660248,21444.524038884236
474,"320 N Park Vista St, Spc 161, Anaheim, CA 92806",0.0012307142120416823,Anaheim,33.844316,-117.866372,1368.0,95.02923976608187,0.0008012637240620069,21443.272994976574,21448.30604397017,21407.272317210332,21455.074123970324,21404.995550772237,21446.70130764699,21446.70130764699,21448.17056638245,19595.775556179164,21446.08092492732
475,"201 N Tustin Ave Apt A, Anaheim, CA 92807",0.0042128294181426815,Anaheim,33.843712,-117.833651,786.0,566.1577608142494,0.015556050250246355,21440.917200777993,21445.948704696268,21404.917235381683,21452.71992302837,21402.64053197666,21444.344290555848,21444.344290555848,21445.81316197428,19593.195579478255,21443.72344510493
476,"7670 E Eucalyptus Way, Anaheim, CA 92808",0.00941969723831903,Anaheim,33.863512,-117.762479,1786.0,557.110862262038,0.015272719798154541,21437.287768422397,21442.31489434522,21401.28982312012,21449.09500268053,21399.013298390757,21440.71139326489,21440.71139326489,21442.179167054444,19588.914556378917,21440.089236600834
477,"190 S Cobblestone Ln, Anaheim, CA 92807",0.043548349041474914,Anaheim,33.844698,-117.812563,6701.0,686.4647067601851,0.019323818970977222,21439.496353567058,21444.52679533513,21403.496878072885,21451.300170882787,21401.220218009348,21442.92260268797,21442.92260268797,21444.39120783733,19591.619558790113,21442.301439137686
478,"640 S Aberdeen St, Anaheim, CA 92807",0.012307142120416822,Anaheim,33.838243,-117.808072,2188.0,594.1499085923217,0.01643270735424842,21438.722298446613,21443.752834687588,21402.72277951133,21450.526018801578,21400.446115609022,21442.148622305187,21442.148622305187,21443.617251181462,19590.864189040665,21441.527487102896
479,"125 N Belinda Cir, Anaheim, CA 92801",0.11833790500400791,Anaheim,33.83375,-117.966043,75554.0,165.44458268258464,0.003006528968011955,21449.573306112306,21454.61165592159,21413.570187518722,21461.3689684049,21411.29320503863,21453.005814238848,21453.005814238848,21454.476401843076,19602.854866160545,21452.387019339432
480,"1169 S Pointe Premier, Anaheim, CA 92807",0.03313461340112222,Anaheim,33.82671,-117.750839,7463.0,468.98030282728126,0.012512650023563051,21433.861347196635,21438.889683588637,21397.862843747746,21445.667336231607,21395.586269679938,21437.285929882524,21437.285929882524,21438.754007371135,19585.69230006842,21436.66413600701
481,"940 S Jay Cir, Anaheim, CA 92808",0.012307142120416822,Anaheim,33.844973,-117.74554,3118.0,416.93393200769725,0.010882663604576797,21434.77902399412,21439.806226427183,21398.781043764426,21446.58618065906,21396.504515958673,21438.202709291345,21438.202709291345,21439.670502387864,19586.431147924413,21437.580575697997
482,"146 S Seneca Cir, Unit 23, Anaheim, CA 92805",0.005869560088198792,Anaheim,33.832892,-117.922006,1298.0,477.65793528505395,0.012784415813038645,21446.398555189226,21451.434829319343,21410.396391946837,21458.196358727953,21408.119494044182,21449.829420434602,21449.829420434602,21451.299487721415,19599.378875764785,21449.210003790606
483,"1891 S Union St, Unit 112, Anaheim, CA 92805",0.007090807267840154,Anaheim,33.799927,-117.892335,1613.0,464.3521388716677,0.012367705346850775,21441.969520719944,21447.00595431493,21405.96728478451,21453.767162032014,21403.690380469016,21445.40051200145,21445.40051200145,21446.870619487992,19594.998332804495,21444.781143407577
484,"1318 N Sunshine Way, Anaheim, CA 92806",0.014153213438479346,Anaheim,33.854259,-117.877976,3820.0,391.3612565445026,0.01008177944981714,21444.796571413062,21449.829700191014,21408.79585665356,21456.597617450454,21406.51908693526,21448.224947284732,21448.224947284732,21449.694225952535,19597.303107040672,21447.604588374394
485,"1900 W Glenoaks Ave Apt C, Anaheim, CA 92801",0.005102730463772821,Anaheim,33.842493,-117.947593,1339.0,402.5392083644511,0.01043185015353166,21448.88674407016,21453.92378641059,21412.88422696784,21460.68375453649,21410.60729773384,21452.318217395838,21452.318217395838,21453.78847718949,19601.97142586173,21451.699030774613
486,"2651 W Lincoln Ave, Unit 17, Anaheim, CA 92801",0.006503851259020275,Anaheim,33.832387,-117.978625,1535.0,447.557003257329,0.011841715877742518,21450.366765028284,21455.405785123698,21414.363338111245,21462.161735900314,21412.08632833239,21453.79980367374,21453.79980367374,21455.27055931114,19603.74687014943,21453.1812095738
487,"1213 E Adele St, Anaheim, CA 92805",0.007497889661053941,Anaheim,33.841383,-117.903074,1268.0,624.6056782334385,0.01738652008149654,21445.66036681391,21450.69532209653,21409.658810740282,21457.459530062086,21407.381966574834,21449.09018825816,21449.09018825816,21450.559924881076,19598.44237524583,21448.470376513516
488,"2300 S Lewis St, Spc 158, Anaheim, CA 92802",0.0016093955080545075,Anaheim,33.79141,-117.894017,1300.0,130.76923076923077,0.0019205675109055485,21441.4862279343,21446.523152285532,21405.483766265843,21453.283363610477,21403.206841973297,21444.917607596984,21444.917607596984,21446.387838163,19594.59295415493,21444.298386075578
489,"505 S Reseda St, Anaheim, CA 92806",0.007856690189026093,Anaheim,33.836246,-117.888489,1411.0,588.1644223954642,0.016245254107109884,21444.265886519042,21449.300387554642,21408.264539812197,21456.065518608175,21405.98771418033,21447.695348407233,21447.695348407233,21449.164971195245,19596.985779621442,21447.075400652935
490,"817 S Anaheim Blvd, Unit 106, Anaheim, CA 92805",0.006862651786992427,Anaheim,33.825975,-117.910925,1540.0,470.7142857142857,0.012566954838904918,21445.125908574282,21450.161982706573,21409.12383756925,21456.923918878387,21406.846947835977,21448.556615486872,21448.556615486872,21450.026632686102,19598.08245019401,21447.937138997364
491,"861 861 1 2 S Lemon St, Anaheim, CA 92805",0.012676356384029327,Anaheim,33.82407,-117.91269,2792.0,479.5845272206304,0.012844752751819713,21445.11600519288,21450.152255852267,21409.113852950824,21456.913833545463,21406.836956027808,21448.546851813848,21448.546851813848,21450.01691327744,19598.099681698044,21447.92742821599
492,"2437 W Glencrest Ave, Anaheim, CA 92801",0.007952297749236932,Anaheim,33.840595,-117.969612,1284.0,654.2048286604362,0.01831350523819037,21450.309657075664,21455.347849119302,21414.30661091942,21462.1054816562,21412.02963484826,21453.74204036906,21453.74204036906,21455.212588378534,19603.56301726069,21453.123198151556
493,"1521 W Crone Ave, Anaheim, CA 92802",0.008046968073240138,Anaheim,33.822005,-117.933799,1684.0,504.75,0.013632884147185055,21446.462667323394,21451.500032248845,21410.460002195894,21458.259346430226,21408.183059871102,21449.894395860705,21449.894395860705,21451.364736658896,19599.609988002132,21449.275306043994
494,"57 Maple Via, Anaheim, CA 92801",0.0012212471796413616,Anaheim,33.862922,-117.912888,1050.0,122.85714285714286,0.001672777018707083,21447.87745572494,21452.911846728795,21411.876159123218,21459.677199466223,21409.59933790799,21451.30683066918,21451.30683066918,21452.776425692075,19600.560886625633,21450.686849728158
495,"4836 E Wasatch Dr, Anaheim, CA 92807",0.008785406067497548,Anaheim,33.851553,-117.811617,1591.0,583.2809553739786,0.01609231385791976,21439.91441463624,21444.944481056074,21403.91511216552,21451.718618464733,21401.638467403805,21443.340366717242,21443.340366717242,21444.808877726242,19591.977796375315,21442.719090701714
496,"531 N Harcourt St, Anaheim, CA 92801",0.0074789555962533,Anaheim,33.838724,-117.974033,1267.0,623.5201262825573,0.017352522803508144,21450.49002919491,21455.52852373184,21414.48684390663,21462.285541838686,21412.20985551808,21453.92265189902,21453.92265189902,21455.39327574885,19603.7888242298,21453.30390031011
497,"260 S Seneca Cir, Unit 38, Anaheim, CA 92805",0.00553821395418757,Anaheim,33.832892,-117.922006,1217.0,480.69022185702545,0.012879380857727758,21446.398555189226,21451.434829319343,21410.396391946837,21458.196358727953,21408.119494044182,21449.829420434602,21449.829420434602,21451.299487721415,19599.378875764785,21449.210003790606
498,"1139 W North St, Anaheim, CA 92801",0.02556098748086571,Anaheim,33.841919,-117.931714,6700.0,402.9850746268657,0.010445813777526488,21447.723319446468,21452.75962602836,21411.721141064376,21459.521088893565,21409.44424181553,21451.154210425735,21451.154210425735,21452.62428578572,19600.701433832823,21450.534803423958
499,"3574 W Carrotwood Ct, Unit F, Anaheim, CA 92804",0.005036461236970577,Anaheim,33.812742,-118.011481,968.0,549.5867768595041,0.015037080754964844,21451.301916975404,21456.343461033794,21415.29733002438,21463.094284974464,21413.02021752928,21454.736953222444,21454.736953222444,21456.20834168417,19605.064273960877,21454.11911539891
500,"6142 E San Lorenzo Ln, Anaheim, CA 92807",0.00941969723831903,Anaheim,33.85504,-117.774178,1791.0,555.5555555555555,0.015224010757178127,21437.51509420559,21442.543190928274,21401.516700784858,21449.321328359005,21399.24013642955,21440.939487354786,21440.939487354786,21442.40750456793,19589.289481669137,21440.31762146489
501,"3062 W Teranimar Dr, Anaheim, CA 92804",0.008993680780304601,Anaheim,33.819709,-117.996587,1614.0,588.5997521685254,0.01625888774970006,21450.740901831254,21455.781395049136,21414.7367977589,21462.534353669584,21412.459728024838,21454.175106377385,21454.175106377385,21455.646231374634,19604.34503174963,21453.556953684365
502,"1150 N Brantford St, Anaheim, CA 92805",0.010887087260368728,Anaheim,33.849943,-117.892445,2706.0,424.98152254249817,0.011134697763168926,21445.51424193476,21450.548274241963,21409.513110885455,21457.31435649295,21407.23630433044,21448.943332907464,21448.943332907464,21450.412838101343,19598.155467885335,21448.323244645304
503,"823 S Anaheim Blvd, Unit 103, Anaheim, CA 92805",0.007336950110248491,Anaheim,33.825494,-117.910752,1583.0,489.5767530006317,0.01315768892893195,21445.079663343917,21450.115752300928,21409.077585523482,21456.877658389854,21406.800695187245,21448.510381987464,21448.510381987464,21449.9804029062,19598.03873006889,21447.89090994255
504,"7322 Braeburn St, Anaheim, CA 92801",0.008283653350280555,Anaheim,33.854343,-117.97018,1605.0,545.171339563863,0.014898798244341213,21451.321855594368,21456.35941357691,21415.31910090626,21463.118333333874,21413.042150631016,21454.753737108902,21454.753737108902,21456.224126080717,19604.472444254894,21454.13470484131
505,"2614 W Meadowview Ln, Anaheim, CA 92804",0.005964230412201999,Anaheim,33.816275,-117.976092,1250.0,504.0,0.013609395673445409,21449.04855976365,21454.088233299448,21413.044832665153,21460.84285757022,21410.767796316413,21452.482115516228,21452.482115516228,21453.953035064435,19602.53608348803,21451.863717301465
506,"597 E Chartres St, Anaheim, CA 92805",0.009703708210328649,Anaheim,33.838783,-117.907958,2083.0,492.07873259721555,0.013236045838333937,21445.821824820505,21450.85714004963,21409.820103014164,21457.620617003082,21407.543244181536,21449.25193114224,21449.25193114224,21450.72175801372,19598.658172542004,21448.632227231177
507,"3050 W Ball Rd, Spc 31, Anaheim, CA 92804",0.0020827471280705392,Anaheim,33.815005,-117.997548,1488.0,147.8494623655914,0.002455485605996472,21450.47634848253,21455.517114198734,21414.47211923941,21462.26951947248,21412.195038423302,21453.910768684953,21453.910768684953,21455.38196202232,19604.12373181192,21453.292697666213
508,"314 N Philadelphia St, Anaheim, CA 92805",0.005670752407792059,Anaheim,33.838926,-117.911711,1008.0,594.2460317460317,0.016435717735810672,21446.097296496773,21451.132785310016,21410.09549474248,21457.895909633666,21407.81862883341,21449.52754020828,21449.52754020828,21450.9974105925,19598.958778169494,21448.90788828831
509,"3050 W Ball Rd, Spc 10, Anaheim, CA 92804",0.0015147251840513013,Anaheim,33.816831,-117.99723,1100.0,145.45454545454547,0.0023804816820314897,21450.582935130547,21455.623597712507,21414.578753259255,21462.37621241261,21412.301676637235,21454.017273712332,21454.017273712332,21455.488441184258,19604.213912894385,21453.39917178131
510,"1368 S Country Glen Way, Anaheim, CA 92808",0.007242279786245284,Anaheim,33.852901,-117.724861,1248.0,612.9807692307693,0.01702245158838324,21433.8787607691,21438.904586008495,21397.881416578337,21445.687336359297,21395.60494501218,21437.301356114815,21437.301356114815,21438.768803912888,19585.324647934864,21436.678810074634
511,"1121 N Anaheim Blvd, Anaheim, CA 92801",0.008037510507872218,Anaheim,33.848215,-117.919986,1376.0,617.0058139534884,0.01714850779807723,21447.339263347974,21452.37470315698,21411.33748395795,21459.137926392206,21409.060620022196,21450.769468323593,21450.769468323593,21452.239326359995,19600.18649251155,21450.149801645362
512,"134 S Magnolia Ave, Unit 12B, Anaheim, CA 92804",0.0044968403901523004,Anaheim,33.830898,-117.974811,1042.0,455.8541266794626,0.012101564898563037,21449.991757178923,21455.03066560884,21413.988381659383,21461.78684335736,21411.711376432497,21453.424707433882,21453.424707433882,21454.89543508977,19603.356761840034,21452.806079896534
513,"7589 E Vis, Del Sol, Anaheim, CA 92808",0.03303994307711901,Anaheim,33.854998,-117.759852,6500.0,536.9230769230769,0.014640479443760136,21436.499720823474,21441.527129923386,21400.50164492553,21448.30666377803,21398.225108652412,21439.923569743973,21439.923569743973,21441.391414580336,19588.174195043728,21439.3014979485
514,"953 S Salem St, Anaheim, CA 92802",0.007572679217016475,Anaheim,33.818493,-117.927794,1339.0,597.3861090365945,0.01653405856645046,21445.789702629678,21450.8269478368,21409.78709267995,21457.5865054737,21407.510155242362,21449.22133639232,21449.22133639232,21450.691647204003,19598.922306087505,21448.602210745405
515,"1540 W Ball Rd, Anaheim, CA 92802",0.010413735640352697,Anaheim,33.8168,-117.935378,2112.0,520.8333333333334,0.014136581417379694,21446.206308141263,21451.243999417253,21410.20349293632,21458.002650948954,21407.926537328396,21449.638294953398,21449.638294953398,21451.108717595424,19599.405090462013,21449.01930293795
516,"143 S Larkwood St, Anaheim, CA 92808",0.0074789555962533,Anaheim,33.867193,-117.740582,1028.0,768.4824902723735,0.021892449043257267,21436.00092691502,21441.026821488234,21400.003550371293,21447.80943006807,21397.727075934756,21439.423577212874,21439.423577212874,21440.891042294214,19587.44593268528,21438.801051809416
517,"823 S Anaheim Blvd, Unit 101, Anaheim, CA 92805",0.007374818239849773,Anaheim,33.825494,-117.910752,1583.0,492.1036007580543,0.013236824658524356,21445.079663343917,21450.115752300928,21409.077585523482,21456.877658389854,21406.800695187245,21448.510381987464,21448.510381987464,21449.9804029062,19598.03873006889,21447.89090994255
518,"1250 S Brookhurst St, Unit 2070, Anaheim, CA 92804",0.00406987722889784,Anaheim,33.815923,-117.957011,912.0,471.38157894736844,0.012587853105014127,21447.67418103659,21452.712954419574,21411.670867968554,21459.469407566496,21409.393868281342,21451.107024322017,21451.107024322017,21452.577718227476,19601.031034314503,21450.48835646002
519,"393 N Ironpike Cir, Unit 21, Anaheim, CA 92807",0.004970192010168332,Anaheim,33.845248,-117.83178,847.0,619.8347107438017,0.017237103088705817,21440.89359460935,21445.924934602255,21404.893704779166,21452.69648577612,21402.617008058838,21444.320554652957,21444.320554652957,21445.78938496775,19593.14696267813,21443.699660095936
520,"6117 E Baja Dr, Anaheim, CA 92807",0.012070466310408806,Anaheim,33.853959,-117.77762,2328.0,547.680412371134,0.014977377298667145,21437.681862830097,21442.71017724883,21401.6833689239,21449.487872649603,21399.406795681825,21441.106428272236,21441.106428272236,21442.574500065934,19589.48872217706,21440.484627580903
521,"110 S Strada Pl, Anaheim, CA 92807",0.028353762038960298,Anaheim,33.84509,-117.818244,5520.0,542.572463768116,0.014817406743166542,21439.925630457758,21444.956326738615,21403.926037542904,21451.72918533875,21401.64936709121,21443.352081020294,21443.352081020294,21444.82074996894,19592.085535488364,21442.730993686622
522,"495 S Paseo Bandera, Anaheim, CA 92807",0.013063444404813638,Anaheim,33.843769,-117.791427,2901.0,475.6594277835229,0.012721826625081048,21437.936752065507,21442.966221348735,21401.937725313976,21449.741572048897,21399.661104947576,21441.36223148934,21441.36223148934,21442.830592859296,19589.91929820466,21440.740776718965
523,"2109 W Juno Ave, Anaheim, CA 92804",0.013244378328048565,Anaheim,33.818992,-117.955024,2526.0,553.840063341251,0.01517028503207645,21447.750634316766,21452.789164526974,21411.747433050023,21459.546111509753,21409.470443259877,21451.183285149422,21451.183285149422,21452.653918076594,19601.069760382943,21450.56454441729
524,"212 E Charlotte Ave, Anaheim, CA 92805",0.00778190063306356,Anaheim,33.820749,-117.907185,1593.0,516.0075329566855,0.013985447170153468,21444.491914682363,21449.528060430202,21408.489810817504,21456.289851475663,21406.212918179022,21447.922678249397,21447.922678249397,21449.39271343677,19597.462881954023,21447.30322325608
525,"46 Pine Via, Anaheim, CA 92801",0.00092682247199139,Anaheim,33.864737,-117.912937,1040.0,94.13461538461539,0.0007732459090074432,21448.009277819296,21453.04358386908,21412.008020317724,21459.809109051366,21409.731202561736,21451.438585533815,21451.438585533815,21452.908159248087,19600.67896322957,21450.818579132334
526,"541 N Fairhaven St, Anaheim, CA 92801",0.006910933652234062,Anaheim,33.839113,-117.942737,1297.0,562.8373168851195,0.015452060703535242,21448.304366440654,21453.341337950944,21412.301882015643,21460.10145020229,21410.02495567672,21451.735783686887,21451.735783686887,21453.206025748204,19601.38133973773,21451.116575878554
527,"130 S Lakeview Ave, Anaheim, CA 92807",0.03397611897712192,Anaheim,33.848793,-117.812031,7593.0,472.6574476491505,0.01262781071634352,21439.748431412943,21444.778650549917,21403.749058541198,21451.55247798116,21401.472407553425,21443.17450435006,21443.17450435006,21444.643053661566,19591.836130855496,21442.553274092603
528,"3402 W Danbrook Ave, Anaheim, CA 92804",0.013253835893416487,Anaheim,33.827522,-118.008529,3150.0,444.44412698412697,0.01174422692761202,21452.137875540902,21457.178566684735,21416.13368030471,21463.931122619528,21413.85660249197,21455.572236787062,21455.572236787062,21457.04341134557,19605.764802914306,21454.95414331997
529,"3400 W Thornton Ave, Anaheim, CA 92804",0.0065511864210218785,Anaheim,33.812933,-118.008068,823.0,840.8262454434994,0.02415810823467645,21451.073998466985,21456.11536935242,21415.069491100738,21462.866545148674,21412.792385654182,21454.508897648746,21454.508897648746,21455.980242699552,19604.81101436884,21453.89100794392
530,"1879 N Cymbal Pl, Anaheim, CA 92807",0.008046030837032507,Anaheim,33.871376,-117.806772,1605.0,529.5327102803739,0.014409028200008818,21440.974345120943,21446.003224673423,21404.975589945545,21452.7797711725,21402.69899358276,21444.399357941315,21444.399357941315,21445.867571286195,19592.84999645588,21443.7777263311
531,"1583 E Lincoln Ave, Anaheim, CA 92805",0.00657958751822284,Anaheim,33.839779,-117.895967,1628.0,426.9041769041769,0.011194911385148536,21445.044447654444,21450.079138338122,21409.04301350245,21456.843883909445,21406.766180128936,21448.474059664684,21448.474059664684,21449.943729969284,19597.78920856225,21447.854168682137
532,"4721 E Copa De Oro Dr, Anaheim, CA 92807",0.05206867820176348,Anaheim,33.840424,-117.812403,10000.0,550.0,0.01505002206281038,21439.18270596325,21444.213345679244,21403.183139244975,21450.98631948381,21400.906471113976,21442.609111731097,21442.609111731097,21444.07776653185,19591.3379665936,21441.988007498043
533,"3113 W Vallejo Dr, Anaheim, CA 92804",0.008501395095487928,Anaheim,33.826035,-117.998792,2077.0,432.3543572460279,0.011365599942263075,21451.344054405836,21456.384349228232,21415.34004140923,21463.137710516527,21413.062979736456,21454.778101956756,21454.778101956756,21456.249177178328,19604.91446723228,21454.159889775223
534,"634 S Sonya Pl, Anaheim, CA 92802",0.009343960979116465,Anaheim,33.824189,-117.935859,1695.0,582.3008849557522,0.016061620046877736,21446.762762850754,21451.80012172932,21410.760100458298,21458.55944804572,21408.48315837418,21450.194486613826,21450.194486613826,21451.664825881264,19599.907527987176,21449.575394966916
535,"507 N Plantation Pl, Anaheim, CA 92806",0.008416191803885044,Anaheim,33.846079,-117.872496,2173.0,409.1118269673263,0.01063769119280412,21443.83062185987,21448.863880600256,21407.8298473803,21455.631534436274,21405.55307238275,21447.259100549738,21447.259100549738,21448.728411852513,19596.362328639923,21446.638780633977
536,"1828 N Cymbal Way, Anaheim, CA 92807",0.008416191803885044,Anaheim,33.868916,-117.806295,1680.0,529.1666666666666,0.014397564458931316,21440.76659623704,21445.795571181803,21404.76779708467,21452.57192411816,21402.491196833675,21444.19168454394,21444.19168454394,21445.659921819006,19592.657999863542,21443.57008152098
537,"866 S Chantilly St, Anaheim, CA 92806",0.006626922680224443,Anaheim,33.828678,-117.874959,1974.0,354.6099290780142,0.008930802663025468,21442.774091123745,21447.80830556132,21406.77287662482,21454.574019306594,21404.496062698705,21446.203326134168,21446.203326134168,21447.67287712984,19595.458114776295,21445.58329260582
538,"10951 Rustic Ln, Anaheim, CA 92804",0.008993680780304601,Anaheim,33.803445,-117.973759,1288.0,737.5776397515529,0.02092457201674261,21447.976554222972,21453.01673295877,21411.97259509714,21459.77033165895,21409.695538210028,21451.41050976978,21451.41050976978,21452.881556046035,19601.54741919942,21450.792263007574
539,"704 N Anna Dr, Anaheim, CA 92805",0.01751400994059317,Anaheim,33.846371,-117.897198,3830.0,483.02872062663187,0.012952617880314552,21445.597664556506,21450.632097290698,21409.59634909341,21457.39736639358,21407.31952621995,21449.02707244012,21449.02707244012,21450.49667803714,19598.29985819374,21448.407104141046
540,"2149 W York Cir, Anaheim, CA 92804",0.005556087711359375,Anaheim,33.818457,-117.957209,1343.0,436.9977661950856,0.011511022061146249,21447.867336144016,21452.905997121696,21411.864074729856,21459.66267846575,21409.587079614532,21451.30009047519,21451.30009047519,21452.77075618614,19601.20589406885,21450.68138891964
541,"1017 N Gilbert St, Anaheim, CA 92801",0.006721593004227649,Anaheim,33.846332,-117.96813,1291.0,549.9612703330752,0.015048809128457701,21450.61047366139,21455.648318484382,21414.6075871486,21462.406656047497,21412.330625207836,21454.042582163922,21454.042582163922,21455.513043094466,19603.80892837293,21453.423635887353
542,"3504 W Mungall Dr, Anaheim, CA 92804",0.015147251840513014,Anaheim,33.823063,-118.011171,3710.0,431.26684636118597,0.01133154131444949,21452.009548549217,21457.05058115488,21416.005196445316,21463.802443597986,21413.728104742942,21455.444180037637,21455.444180037637,21456.915440221786,19605.68957437191,21454.8261889032
543,"5901 E Cowboy Cir, Anaheim, CA 92807",0.014200075248860933,Anaheim,33.841161,-117.78539,3092.0,485.1067270375162,0.013017696812331716,21437.325574595645,21442.35487880392,21401.32662408517,21449.130564937714,21399.050010464533,21440.750923353837,21440.750923353837,21442.219243360007,19589.28612477639,21440.129419172295
544,"703 N Janss St, Anaheim, CA 92805",0.0076493621794590716,Anaheim,33.840413,-117.923907,1488.0,543.010752688172,0.014831133060218693,21447.06479777959,21452.100801464447,21411.062758894728,21458.86287975823,21408.785871995027,21450.495449012065,21450.495449012065,21451.965448452946,19600.000016159516,21449.87595129659
545,"1650 S Pounders Ln, Anaheim, CA 92804",0.00852031969325617,Anaheim,33.806181,-117.944236,1521.0,591.715318869165,0.016356460958542846,21446.081954604062,21451.120582662716,21410.07870860361,21457.877331728418,21407.801714861216,21449.514682813777,21449.514682813777,21450.985340356736,19599.425146888694,21448.895971503414
546,"3311 W Lincoln Ave, Apt 1, Anaheim, CA 92801",0.006295576546213221,Anaheim,33.83228,-118.005848,1604.0,414.5885286783042,0.010809210345228361,21452.284592570497,21457.3249259956,21416.280561688363,21464.078208423096,21414.003498427537,21455.718670709037,21455.718670709037,21457.189755564574,19605.85582852551,21455.100470037753
547,"1232 W La Palma Ave, Anaheim, CA 92801",0.006152624356968379,Anaheim,33.846904,-117.934522,912.0,712.609649122807,0.020142625360455906,21448.274369090945,21453.31057085044,21412.2722388614,21460.07224631832,21409.99534387168,21451.705177131684,21451.705177131684,21453.175226180996,19601.233414422462,21451.08573868923
548,"28 Pine Via, Anaheim, CA 92801",0.0022484201950761502,Anaheim,33.863835,-117.914037,1620.0,146.60493827160494,0.0024165096439965287,21448.02325887281,21453.05766120687,21412.021957031026,21459.82299086644,21409.74513535143,21451.45264278962,21451.45264278962,21452.922240646516,19600.707637183594,21450.832665234233
549,"923 E Weaver Ln, Anaheim, CA 92802",0.006815316624990824,Anaheim,33.793036,-117.893793,1356.0,530.8997050147493,0.014451839693236301,21441.585359837758,21446.622195166434,21405.582939112366,21453.38258723151,21403.306018443243,21445.016669048982,21445.016669048982,21446.486877288,19594.67789007144,21444.39742084794
550,"5815 E La Palma Ave, Spc 119, Anaheim, CA 92807",0.0021300822900721422,Anaheim,33.861581,-117.782404,1300.0,173.07692307692307,0.003245558337244568,21438.559211284617,21443.587389256816,21402.560780205993,21450.36536123599,21400.284212515653,21441.9836687753,21441.9836687753,21443.451706311724,19590.340393088074,21441.361827158955
551,"10601 Patricia Dr, Anaheim, CA 92804",0.009173554395910694,Anaheim,33.808779,-117.966931,1214.0,798.1878088962109,0.022822759171822367,21447.870705766964,21452.910299687304,21411.86701544676,21459.665086230074,21409.58998235977,21451.304198463837,21451.304198463837,21452.775098105798,19601.35240181838,21450.68577646396
552,"1550 W Minerva Ave, Anaheim, CA 92802",0.007573625920256507,Anaheim,33.819354,-117.935002,1774.0,450.9582863585118,0.0119482371428135,21446.360298383177,21451.397848695815,21410.35754799367,21458.1567864315,21408.080598122313,21449.792173638103,21449.792173638103,21451.26256092655,19599.536617601272,21449.173139375755
553,"2625 E Ward Ter, Anaheim, CA 92806",0.009561702724323839,Anaheim,33.840321,-117.874953,2361.0,427.78483693350273,0.011222491865111704,21443.597089450155,21448.630743400798,21407.596132959807,21455.39759485981,21405.319341859256,21447.025880909376,21447.025880909376,21448.49529132282,19596.190679303803,21446.405679410087
554,"1400 S Sunkist St, Spc 137, Anaheim, CA 92806",0.001882992744423774,Anaheim,33.81434,-117.881294,1856.0,107.16594827586206,0.001181360736218958,21442.208026251275,21447.243235291397,21406.2063538909,21454.006929631287,21403.929499451093,21445.638048394118,21445.638048394118,21447.10784881356,19595.047687165385,21445.01831288875
555,"305 S Quadrilateral Way, Anaheim, CA 92802",0.0077524392282337625,Anaheim,33.828539,-117.940711,1945.0,421.02210796915165,0.01101069695619503,21447.413444919468,21452.450827760484,21411.41077140289,21459.210105097598,21409.13382833105,21450.845187672046,21450.845187672046,21452.31553291655,19600.558357180267,21450.226103165263
556,"1800 W Glencrest Ave, Anaheim, CA 92801",0.04922856848166729,Anaheim,33.840115,-117.945653,13484.0,385.64224265796497,0.009902671573162991,21448.581416791007,21453.618480275185,21412.57889000866,21460.37840560962,21410.301959919303,21452.012906838863,21452.012906838863,21453.483171949014,19601.67099820946,21451.393726571583
557,"2158 W Niobe Ave, Anaheim, CA 92804",0.007336950110248491,Anaheim,33.822449,-117.957461,1438.0,538.94297635605,0.014703738583477623,21448.167392540272,21453.20587356059,21412.164213827946,21459.962920243423,21409.88722603248,21451.600004458207,21451.600004458207,21453.07062503106,19601.476710395986,21450.98124896116
558,"1780 N Azure St, Anaheim, CA 92807",0.009457565367920312,Anaheim,33.869038,-117.815646,2000.0,499.5,0.013468464831007531,21441.43611701774,21446.46553609796,21405.437112877196,21453.240987026504,21403.160494493957,21444.861556844062,21444.861556844062,21446.329905456005,19593.391988098905,21444.240086821068
559,"1485 W Cerritos Ave, Unit 10, Anaheim, CA 92802",0.006229307319410977,Anaheim,33.811516,-117.931565,1446.0,455.0484094052559,0.012076331473180659,21445.563062703306,21450.600824917583,21409.560214969762,21457.359332693606,21407.28325648549,21448.995105633825,21448.995105633825,21450.465546094503,19598.77621861851,21448.37613491336
560,"191 S Larkwood St, Anaheim, CA 92808",0.008757004970296585,Anaheim,33.866475,-117.740069,1374.0,673.216885007278,0.018908924153176326,21435.913871676523,21440.939776094317,21399.916490599866,21447.722364732446,21397.640015762994,21439.336529762077,21439.336529762077,21440.803997316245,19587.36085860246,21438.714007312574
561,"901 S Sedona Ln, Anaheim, CA 92808",0.011833790500400792,Anaheim,33.859672,-117.727238,2065.0,605.3268765133172,0.016782747244249982,21434.525848982223,21439.55146288482,21398.528602298364,21446.33464191934,21396.252139349483,21437.948277100266,21437.948277100266,21439.415671872488,19585.93583121413,21437.32566772179
562,"2300 S Lewis St, Spc 15, Anaheim, CA 92802",0.0015620603460529045,Anaheim,33.792089,-117.896912,1344.0,122.76785714285714,0.0016699807718333153,21441.73895429921,21446.775985188644,21405.736443575846,21453.53598003116,21403.459514940183,21445.17041828925,21445.17041828925,21446.64067555724,19594.86065446022,21444.551228674223
563,"4831 E Copa De Oro Dr, Anaheim, CA 92807",0.04732463466157401,Anaheim,33.842334,-117.811315,9503.0,526.0326212774913,0.014299412535167979,21439.240914630598,21444.27141008795,21403.241414419732,21451.044676753914,21400.96475217118,21442.66720623223,21442.66720623223,21444.135824856752,19591.3737382322,21442.04605878091
564,"3181 W Rome Ave, Anaheim, CA 92804",0.008046968073240138,Anaheim,33.820736,-118.001843,1374.0,618.6310043668122,0.017199405454537603,21451.1852634184,21456.225959781987,21415.181065931487,21462.97850557604,21412.903987923935,21454.619628759345,21454.619628759345,21456.0908046727,19604.818158401384,21454.001536914664
565,"718 S Camino Grande, Anaheim, CA 92807",0.006996136943836948,Anaheim,33.838975,-117.758198,1539.0,480.1819363222872,0.012863462389147836,21435.249167477607,21440.277267940273,21399.25077268492,21447.055398876033,21396.974208219053,21438.673563500015,21438.673563500015,21440.141581760694,19587.03641890099,21438.051698869112
566,"402 S Danbrook Dr, Anaheim, CA 92804",0.007100274300240475,Anaheim,33.826668,-118.008059,1399.0,536.0972122944961,0.014614615044238907,21452.04426265088,21457.084972297405,21416.040058927505,21463.837490696365,21413.762980363703,21455.478638537268,21455.478638537268,21456.949817739736,19605.67453719931,21454.860550620513
567,"584 S Andover Dr, Anaheim, CA 92807",0.013140240971645038,Anaheim,33.840981,-117.802104,3066.0,452.7071102413568,0.01200300674794346,21438.494158510028,21443.524275800653,21402.494832800956,21450.2983106157,21400.218185990598,21441.920150796584,21441.920150796584,21443.388674630398,19590.573043866436,21441.298890106802
568,"2040 W Broadway, Anaheim, CA 92804",0.012780484273400455,Anaheim,33.828613,-117.95404,3137.0,430.34714695569016,0.011302738200670346,21448.36126502552,21453.399285041425,21412.358298286636,21460.157267894672,21410.08132925483,21451.793512095846,21451.793512095846,21453.26401706415,19601.598797167004,21451.174618451205
569,"180 S Hidden Path, Anaheim, CA 92801",0.010413735640352697,Anaheim,33.831475,-117.964474,2499.0,440.1760704281713,0.0116105600818335,21449.301501068134,21454.339884915036,21413.29836686439,21461.097128401856,21411.0213830037,21452.734036122878,21452.734036122878,21454.204632275043,19602.5897577916,21452.11525143918
570,"946 E Drapery Ln, Anaheim, CA 92802",0.007572679217016475,Anaheim,33.792294,-117.893196,1572.0,508.84223918575066,0.01376104475071953,21441.49067856111,21446.527520889184,21405.488254630032,21453.287898785682,21403.21133367762,21444.921993308264,21444.921993308264,21446.392203306947,19594.584796464336,21444.302747210222
571,"314 S Illinois St, Anaheim, CA 92805",0.008993680780304601,Anaheim,33.829968,-117.92492,2031.0,467.7498769079271,0.01247411558770261,21446.39784904336,21451.43440395971,21410.39555659324,21458.195363154737,21408.118647254905,21449.82893651141,21449.82893651141,21451.29907420489,19599.42124975235,21449.209603997322
572,"2304 W Canopy Ln, Unit 1, Anaheim, CA 92801",0.010404268607952375,Anaheim,33.830742,-117.963492,2737.0,401.53452685421996,0.010400385573171965,21449.18022984472,21454.21860175713,21413.177101147903,21460.97586954081,21410.900117775283,21452.612755449452,21452.612755449452,21454.083348614957,19602.467313098667,21451.993967197093
573,"157 S Donna Ct, Anaheim, CA 92807",0.011927514121163966,Anaheim,33.855624,-117.770282,2689.0,468.5384901450353,0.012498813349450015,21437.281082739803,21442.30896382025,21401.282788874672,21449.08753914027,21399.006233324028,21440.70530521902,21440.70530521902,21442.173268369836,19589.023678444282,21440.083374750346
574,"1837 W Cerritos Ave, Anaheim, CA 92804",0.008046977540272539,Anaheim,33.810794,-117.947665,2060.0,412.621359223301,0.010747602601114658,21446.65059713565,21451.689168060813,21410.64737731791,21458.446032886404,21408.370385890707,21450.083280149578,21450.083280149578,21451.55392333905,19599.981937840865,21449.46455168471
575,"6567 E Camino Vis, Unit 3, Anaheim, CA 92807",0.006910933652234062,Anaheim,33.840098,-117.759958,1540.0,474.02597402597405,0.012670670177495564,21435.45300080492,21440.481131958124,21399.454591817284,21447.259200489858,21397.1780260952,21438.877421123878,21438.877421123878,21440.345447070533,19587.243851871706,21438.255565673528
576,"63 Lemon Via, Anaheim, CA 92801",0.0011313103718383157,Anaheim,33.863157,-117.912625,1152.0,103.73263888888889,0.0010738364730509572,21447.875480656705,21452.90984770938,21411.874195084492,21459.675249083346,21409.597374845252,21451.304836645308,21451.304836645308,21452.77442566254,19600.555248470486,21450.68484852858
577,"2961 W Lincoln Ave, Unit 1, Anaheim, CA 92801",0.008153775132780556,Anaheim,33.832287,-117.991784,1991.0,432.5871421396283,0.011372890291410167,21451.290365949015,21456.330023236187,21415.28664597142,21463.08467942309,21413.00961024258,21454.723908927353,21454.723908927353,21456.194824292957,19604.763237287414,21454.10550570654
578,"1183 N Voyager Ln, Anaheim, CA 92801",0.006625975976984411,Anaheim,33.848159,-117.950016,1461.0,479.05544147843943,0.012828182863071082,21449.45871355879,21454.49559979733,21413.4562681865,21461.255884661146,21411.179345298726,21452.890063362338,21452.890063362338,21454.360283986163,19602.51634490455,21452.270829933645
579,"1749 N Oxford St, Anaheim, CA 92806",0.00762096108225811,Anaheim,33.867642,-117.859172,1427.0,564.1205325858444,0.01549224840792028,21444.41387701049,21449.445457451948,21408.4138757968,21456.216518719197,21406.137169206773,21447.841027483733,21447.841027483733,21449.3099179214,19596.685029196473,21447.220204743207
580,"2951 W Lincoln Ave, Unit 8, Anaheim, CA 92801",0.006392140276696491,Anaheim,33.832333,-117.99198,1084.0,622.8782287822878,0.017332419880069977,21451.307480318734,21456.347144811567,21415.303757026406,21463.101786355226,21413.026721004015,21454.741029000565,21454.741029000565,21456.211946172127,19604.781364557162,21454.122627937915
581,"626 S Harbor Blvd, Anaheim, CA 92805",0.007573616453224106,Anaheim,33.826662,-117.91677,1400.0,571.4278571428572,0.01572109894253957,21445.58778615626,21450.624108279546,21409.58560095426,21457.385540617834,21407.30870111189,21449.018689353907,21449.018689353907,21450.48876871413,19598.57986702175,21448.39928713928
582,"320 N Park Vista St, Spc 36, Anaheim, CA 92806",0.001969142739266692,Anaheim,33.843836,-117.865668,1440.0,144.44444444444446,0.002348847373964626,21443.189277159814,21448.22231538373,21407.188604368188,21454.990417292323,21404.911838370615,21446.61758130368,21446.61758130368,21448.08683734268,19595.69064062059,21445.99719536266
583,"1250 S Brookhurst St, Unit 1017, Anaheim, CA 92804",0.004259217876904253,Anaheim,33.815923,-117.957011,912.0,493.31140350877195,0.013274650582781562,21447.67418103659,21452.712954419574,21411.670867968554,21459.469407566496,21409.393868281342,21451.107024322017,21451.107024322017,21452.577718227476,19601.031034314503,21450.48835646002
584,"729 N Clementine St, Anaheim, CA 92805",0.009467022933288233,Anaheim,33.842252,-117.919925,2912.0,343.40625,0.008579926233943654,21446.913279376135,21451.94900312801,21410.911369354457,21458.71164996401,21408.63449386001,21450.34370905582,21450.34370905582,21451.813638311203,19599.806376084416,21449.724127476944
585,"193 N Magnolia Ave Apt A, Anaheim, CA 92801",0.006106235898206808,Anaheim,33.833563,-117.976716,1238.0,521.0016155088853,0.014141851672661429,21450.314895724587,21455.353767497345,21414.311537008824,21462.11001953916,21412.034533268037,21453.74781698006,21453.74781698006,21455.218535428703,19603.672523178666,21453.12917843874
586,"513 S Dale Ave, Anaheim, CA 92804",0.007526290758254903,Anaheim,33.825553,-117.985004,1724.0,461.1368909512761,0.012267010325058015,21450.334781138343,21455.374436580605,21414.33106215699,21462.12909697722,21412.05402652085,21453.768322620086,21453.768322620086,21455.239237569265,19603.81255188923,21453.149918904855
587,"226 N Berniece Dr, Anaheim, CA 92801",0.007194944624243681,Anaheim,33.834898,-117.953098,1871.0,406.19989310529127,0.010546495350070791,21448.739020815276,21453.776693172847,21412.736213918735,21460.53538189913,21410.45925903431,21452.170992751435,21452.170992751435,21453.641410527278,19601.92116309326,21451.55199491247
588,"370 S Yorkshire Cir, Anaheim, CA 92808",0.018460713180625234,Anaheim,33.857466,-117.761344,4040.0,482.6732673267327,0.012941485806314082,21436.7797776168,21441.807139796023,21400.781723333515,21448.58676876659,21398.505188970295,21440.20358941466,21440.20358941466,21441.67142247178,19588.44553969904,21439.581503547786
589,"2953 W Lincoln Ave, Unit 3, Anaheim, CA 92801",0.008056236297960052,Anaheim,33.832287,-117.991509,2001.0,425.2763618190905,0.0111439315293098,21451.27091615222,21456.310560224403,21415.267202251933,21463.065243260826,21412.99016706124,21454.704448670967,21454.704448670967,21456.17536072392,19604.74186512292,21454.086041491402
590,"1442 E Norman Ave, Anaheim, CA 92805",0.006958268814235665,Anaheim,33.823788,-117.893041,1238.0,593.6995153473345,0.016418601954371892,21443.70672662009,21448.742045985575,21407.705003238607,21455.505515563636,21405.42814427657,21447.136836134672,21447.136836134672,21448.606664145627,19596.5551811552,21446.517133592304
591,"924 N Fairview St, Anaheim, CA 92801",0.007384285272250094,Anaheim,33.844801,-117.951472,1562.0,499.359795134443,0.013464073899937123,21449.32423636673,21454.361354140226,21413.321684492803,21461.12116886265,21411.04475217903,21452.755769409247,21452.755769409247,21454.2260480964,19602.41811868579,21452.13660536321
592,"2580 E Lark Ellen Ln, Anaheim, CA 92806",0.00941969723831903,Anaheim,33.81572,-117.878145,1963.0,506.87722873153336,0.013699504622116844,21442.08296719397,21447.117958377534,21406.081395148365,21453.882095172954,21403.80454958641,21445.51281691453,21445.51281691453,21446.982562712623,19594.889887519646,21444.89301614496
593,"21 Magnolia Via, Unit 353, Anaheim, CA 92801",0.0009467032400320634,Anaheim,33.866009,-117.913655,1080.0,92.5925925925926,0.0007249528931989589,21448.1499976729,21453.18427705924,21412.148752427966,21459.94985631637,21409.871935755862,21451.57928429069,21451.57928429069,21453.048851312287,19600.81483037828,21450.9592698922
594,"127 N Gilbert St, Anaheim, CA 92801",0.010413735640352697,Anaheim,33.833589,-117.967975,2461.0,446.9727752945957,0.011823419046861681,21449.69855521941,21454.737005633517,21413.695390343328,21461.49411373437,21411.418403765503,21453.131142972947,21453.131142972947,21454.601755797394,19602.994872401887,21452.51237821133
595,"1640 S Carnelian St, Anaheim, CA 92802",0.008519382457048539,Anaheim,33.80662,-117.937207,2708.0,332.31166912850813,0.008232466538673763,21445.615896381856,21450.654165418353,21409.612815547207,21457.41164386164,21407.335836428327,21449.0483404309,21449.0483404309,21450.518907972968,19598.906529245403,21448.429521570648
596,"836 N Zeyn St, Anaheim, CA 92805",0.009230356590312617,Anaheim,33.845461,-117.917944,2085.0,467.62589928057554,0.012470232860710143,21447.000131749406,21452.03560586635,21410.998336619607,21458.79875959665,21408.72147129253,21450.43036386433,21450.43036386433,21451.900230519812,19599.85446280548,21449.810707485936
597,"419 N Alice Way, Unit D, Anaheim, CA 92806",0.00553821395418757,Anaheim,33.844834,-117.867731,1020.0,573.5294117647059,0.015786915356603204,21443.405705414527,21448.43879485585,21407.405008993544,21455.20679266227,21405.128240904338,21446.834050101206,21446.834050101206,21448.303318972576,19595.91375048274,21446.21367949112
598,"2957 W Lincoln Ave, Unit 8, Anaheim, CA 92801",0.0072511882637339865,Anaheim,33.832287,-117.991509,1339.0,572.0246452576549,0.01573978913182298,21451.27091615222,21456.310560224403,21415.267202251933,21463.065243260826,21412.99016706124,21454.704448670967,21454.704448670967,21456.17536072392,19604.74186512292,21454.086041491402
599,"5211 E Fairlee Ct, Anaheim, CA 92807",0.012922499226437664,Anaheim,33.842892,-117.802916,3099.0,440.4646660212972,0.011619598308514188,21438.686737182525,21443.7168016001,21402.68743582674,21450.490943668483,21400.41079116946,21442.112687631983,21442.112687631983,21443.58119819833,19590.756470460346,21441.491411091803
600,"1854 S Janette Ln, Anaheim, CA 92802",0.01135097184798444,Anaheim,33.801256,-117.928519,1780.0,673.5955056179776,0.018920781780205266,21444.622240802077,21449.660350277387,21408.61923350124,21456.418153257568,21406.34226089646,21448.054558530905,21448.054558530905,21449.52508611162,19597.893782409275,21447.435691920484
601,"705 S Sylvan St, Anaheim, CA 92804",0.007810301730264522,Anaheim,33.822927,-117.979247,1359.0,607.0640176600441,0.01683715096985925,21449.741964961195,21454.78147007637,21413.738315171468,21461.53643607866,21411.461285664045,21453.175387445677,21453.175387445677,21454.646264729734,19603.199883265457,21452.556938720565
602,"5346 E Westridge Rd, Anaheim, CA 92807",0.013140240971645038,Anaheim,33.844281,-117.798726,2680.0,517.9104477611941,0.014045042589372779,21438.488851068087,21443.51864700382,21402.489673565124,21450.29333425546,21400.213039863112,21441.914589029893,21441.914589029893,21443.383032282796,19590.51848943779,21441.29323207602
603,"2427 E Seville Ave, Anaheim, CA 92806",0.009172494088281857,Anaheim,33.843089,-117.881608,1830.0,529.4469945355191,0.014406343757312692,21444.263346536976,21449.297187398828,21408.26230385394,21456.063659000232,21405.98550512378,21447.69228594752,21447.69228594752,21449.161743196866,19596.881991673206,21447.072140405286
604,"506 S Westgate Dr, Anaheim, CA 92806",0.008283643883248154,Anaheim,33.835973,-117.867477,1598.0,547.5588235294117,0.01497356938357937,21442.761048899858,21447.79455245686,21406.760161813134,21454.56170970246,21404.48337685737,21446.189721302184,21446.189721302184,21447.659094044735,19595.336105907707,21445.569474797
605,"6103 E Morningview Dr, Unit 7, Anaheim, CA 92807",0.009230356590312617,Anaheim,33.84151,-117.776295,2388.0,408.29145728643215,0.01061199888386214,21436.707473501196,21441.736323142974,21400.708732791638,21448.512932432466,21398.432137728407,21440.13246248681,21440.13246248681,21441.60066853795,19588.60167892431,21439.510822178097
606,"1907 W Folsom St, Anaheim, CA 92804",0.007848169859865806,Anaheim,33.806594,-117.950565,1468.0,564.7138964577657,0.015510831356885186,21446.558754519312,21451.597666937294,21410.555377699016,21458.353838248506,21408.27837237315,21449.991707799527,21449.991707799527,21451.46243662135,19599.942992850523,21449.37308166714
607,"9006 Stacie Ln, Unit 26, Anaheim, CA 92804",0.005860093055798472,Anaheim,33.8054,-117.974749,1526.0,405.6356487549148,0.010528824365262044,21448.18477950254,21453.22491174838,21412.180841709847,21459.9786047723,21409.903786710605,21451.618698263286,21451.618698263286,21453.089732872373,19601.747380518496,21451.00043755717
608,"1919 W Coronet Ave, Spc 113, Anaheim, CA 92801",0.002319422938078555,Anaheim,33.852784,-117.947532,1680.0,145.83333333333334,0.0023923445475565637,21449.610093561172,21454.646637898317,21413.607805479827,21461.40761702222,21411.330896513005,21453.041172779154,21453.041172779154,21454.51130766462,19602.614451306228,21452.421836898837
609,"801 S Anaheim Blvd, Unit 106, Anaheim, CA 92805",0.007242279786245284,Anaheim,33.826565,-117.911122,1753.0,436.39475185396464,0.011492136879124848,21445.18155848027,21450.217613697416,21409.179496171713,21456.979588254173,21406.902607207845,21448.61225042499,21448.61225042499,21450.08226287858,19598.134896476215,21447.992768264736
610,"568 S Wayside St, Anaheim, CA 92805",0.007857636892266125,Anaheim,33.832978,-117.893703,1600.0,518.75,0.014071335656991786,21444.403420589482,21449.438329612418,21408.40188600934,21456.202632124216,21406.12504375184,21447.83320537459,21447.83320537459,21449.3029304587,19597.185150178517,21447.213379847082
611,"3108 W Graciosa Ln, Anaheim, CA 92804",0.00851086212788825,Anaheim,33.828753,-117.99883,1773.0,507.05019740552734,0.013704921648992697,21451.538882998386,21456.57904888469,21415.534929225294,21463.332671958287,21413.25787279535,21454.972828511545,21454.972828511545,21456.443871393694,19605.08845296487,21454.354577681035
612,"371 S Silverbrook Dr, Anaheim, CA 92807",0.013395850846453696,Anaheim,33.84819,-117.799294,2631.0,537.8183200304067,0.01466851663604962,21438.805530701113,21443.83516588874,21402.806427290092,21450.61017934437,21400.529800139593,21442.231141456934,21442.231141456934,21443.699544386167,19590.808803226515,21441.609736330687
613,"531 S Indian Trl, Unit 41, Anaheim, CA 92807",0.008037510507872218,Anaheim,33.843654,-117.787117,1344.0,631.6964285714286,0.01760858795230756,21437.623999970823,21442.653267345475,21401.625066404926,21449.42902811457,21399.34845428146,21441.049319589867,21441.049319589867,21442.517630345374,19589.577283733517,21440.427804356503
614,"2817 E Jackson Ave Unit B, Anaheim, CA 92806",0.005442596926944332,Anaheim,33.845072,-117.869922,1266.0,454.1074249605055,0.012046861755287413,21443.577430930254,21448.61061430988,21407.576691206625,21455.378421290094,21405.29991928536,21447.005849968304,21447.005849968304,21448.475142386516,19596.098952375218,21446.385507490653
615,"1318 W Cara Dr, Anaheim, CA 92805",0.00793337315146869,Anaheim,33.809451,-117.90749,1296.0,646.604938271605,0.018075492137094036,21443.71459466122,21448.751298711202,21407.712234007253,21455.51195634618,21405.435318644977,21447.14580005574,21447.14580005574,21448.615975273922,19596.775430717356,21446.5265123899
616,"7735 E Northfield Ave, Anaheim, CA 92807",0.008283653350280555,Anaheim,33.872593,-117.769155,1511.0,579.0866975512905,0.015960958238285743,21438.402064924263,21443.42907532989,21402.40417277596,21450.20941762887,21400.12765274118,21441.82559838838,21441.82559838838,21443.293343157213,19590.00510146574,21441.203407055356
617,"2668 W Glencrest Ave, Anaheim, CA 92801",0.007714684703021284,Anaheim,33.840017,-117.979388,1580.0,515.7594936708861,0.0139776790844856,21450.960157343703,21455.998847041054,21414.95688224404,21462.755468559262,21412.6798859026,21454.39293452271,21454.39293452271,21455.86360728552,19604.28634792793,21453.77424138375
618,"1616 S Euclid St, Spc 26, Anaheim, CA 92802",0.0018934064800641267,Anaheim,33.807443,-117.940517,1344.0,148.8095238095238,0.0024855527766821433,21445.90816709725,21450.946555653165,21409.90503125491,21457.70379121948,21407.628047265156,21449.340705749324,21449.340705749324,21450.811303246304,19599.215553044603,21448.721922684177
619,"1279 N Willet Cir, Anaheim, CA 92807",0.00852031969325617,Anaheim,33.873498,-117.764241,1711.0,526.0075978959673,0.014298628853781569,21438.118854150496,21443.145584454287,21402.121091363286,21449.92649550101,21399.844582767728,21441.542165929714,21441.542165929714,21443.00984047464,19589.68048694831,21440.91989071593
620,"1635 W Lincoln Ave, Unit 103, Anaheim, CA 92801",0.007289520277922884,Anaheim,33.832819,-117.937449,1799.0,428.0100055586437,0.011229543688229858,21447.485398369296,21452.522418473323,21411.4828917149,21459.282432435946,21409.205963412278,21450.91685404288,21450.91685404288,21452.387108328556,19600.57426842601,21450.29766084469
621,"210 S Vine St, Anaheim, CA 92805",0.007526290758254903,Anaheim,33.836207,-117.905361,1500.0,530.0,0.014423662763086478,21445.45603859209,21450.49135287757,21409.454317277025,21457.254831924383,21407.17745848961,21448.88614415303,21448.88614415303,21450.355970805576,19598.29422540682,21448.266439981617
622,"104 S Kingsley St, Anaheim, CA 92806",0.01077348287156488,Anaheim,33.841442,-117.866605,1926.0,590.8618899273105,0.016329733300823643,21443.086199020836,21448.119397498496,21407.085452418407,21454.88717405976,21404.808679890855,21446.51462998903,21446.51462998903,21447.98392621686,19595.612700296722,21445.89429206466
623,"963 E Mason Ln, Unit 88, Anaheim, CA 92805",0.006806796295830535,Anaheim,33.805305,-117.896194,1603.0,448.53399875233936,0.011872313388446925,21442.622675139846,21447.659035510955,21406.620472798102,21454.42039161281,21404.343571452766,21446.053608494723,21446.053608494723,21447.523697588927,19595.63670950092,21445.434217921378
624,"520 S Circulo Lazo, Anaheim, CA 92807",0.01003505434433987,Anaheim,33.845576,-117.770138,1589.0,667.0862177470107,0.01871692413057726,21436.56000295214,21441.58836057136,21400.561489286483,21448.365968812894,21398.28491430238,21439.98460254064,21439.98460254064,21441.452685221426,19588.379570484864,21439.362814858334
625,"1514 W Bushell St, Anaheim, CA 92805",0.007526290758254903,Anaheim,33.810053,-117.908023,1242.0,640.096618357488,0.01787166480190476,21443.794851173436,21448.831551884614,21407.792492043238,21455.592216261157,21405.51557681545,21447.226053928585,21447.226053928585,21448.696228305693,19596.854739569764,21446.60676525745
626,"1319 W Cara Dr, Anaheim, CA 92805",0.010413735640352697,Anaheim,33.809759,-117.907449,1881.0,584.7953216374269,0.016139740727534706,21443.733473880282,21448.770161138033,21407.73112094982,21455.530852865497,21405.45420627105,21447.164665985627,21447.164665985627,21448.63483699229,19596.791631272397,21446.545373287263
627,"2528 E Standish Ave, Anaheim, CA 92806",0.007658829211859392,Anaheim,33.832946,-117.879373,1610.0,502.48447204968943,0.013561932422161983,21443.387999693383,21448.42222107433,21407.386781901376,21455.18792042306,21405.10996768098,21446.817240222408,21446.817240222408,21448.28679292944,19596.069758389924,21446.19720873674
628,"1801 E Katella Ave, Apt 1036, Anaheim, CA 92805",0.0041181590941394754,Anaheim,33.804332,-117.890222,535.0,813.0841121495328,0.023289281075533644,21442.13159290455,21447.167712906692,21406.129501255127,21453.929557378553,21403.852609708894,21445.56233600552,21445.56233600552,21447.032364851366,19595.111415980788,21444.9428734427
629,"649 S District Way, Anaheim, CA 92805",0.0064565160970186716,Anaheim,33.83001,-117.900696,1308.0,521.4067278287462,0.014154538966110306,21444.687971561874,21449.723359678093,21408.686216379545,21456.486689169436,21406.409354598618,21448.11813552515,21448.11813552515,21449.58798072784,19597.54164994689,21447.498453521286
630,"7915 E Acorn Ct, Anaheim, CA 92808",0.006475450161819313,Anaheim,33.850929,-117.73802,1357.0,504.0530582166544,0.01361105734881682,21434.669053351496,21439.695607116395,21398.671372614153,21446.4768782072,21396.394871289514,21438.092225285083,21438.092225285083,21439.55985572856,19586.222331964713,21437.46989740471
631,"250 E Ponderosa Ln, Unit 20, Anaheim, CA 92802",0.006390246870216427,Anaheim,33.792993,-117.904732,1724.0,391.53132250580046,0.010087105569638408,21442.355861596152,21447.393225014544,21406.353197800065,21454.15254424567,21404.07625561249,21445.787588783893,21445.787588783893,21447.257929402796,19595.52523247249,21445.16849876686
632,"1531 S Dallas Dr, Anaheim, CA 92804",0.012865697032035741,Anaheim,33.809169,-117.954343,2300.0,590.8695652173913,0.016329973675289648,21447.007994383795,21452.046964499557,21411.004590966426,21458.803018410297,21408.727583283813,21450.440993345306,21450.440993345306,21451.91173661288,19600.39864891649,21449.82238447445
633,"1506 W Cara Dr, Anaheim, CA 92805",0.007460021531452659,Anaheim,33.809759,-117.907449,1242.0,634.4605475040257,0.01769515453225632,21443.733473880282,21448.770161138033,21407.73112094982,21455.530852865497,21405.45420627105,21447.164665985627,21447.164665985627,21448.63483699229,19596.791631272397,21446.545373287263
634,"6519 E Camino Vis, Unit 4, Anaheim, CA 92807",0.006910933652234062,Anaheim,33.839128,-117.76245,1539.0,474.3339831059129,0.01268031639507652,21435.560485371763,21440.588783167303,21399.561999467714,21447.366513342877,21397.28542694336,21438.985037577037,21438.985037577037,21440.453105305074,19587.376302593722,21438.36323203624
635,"280 N Avenida Malaga, Anaheim, CA 92808",0.011313103718383156,Anaheim,33.861795,-117.771451,2863.0,417.3943415997206,0.010897082696059093,21437.800308054328,21442.827948497066,21401.802125171256,21449.607012080578,21399.525579431887,21441.224340110883,21441.224340110883,21442.69224289507,19589.50319553215,21440.60233753076
636,"1250 N State College Blvd, Spc 76, Anaheim, CA 92806",0.0021300822900721422,Anaheim,33.852552,-117.888629,1344.0,167.41071428571428,0.0030681042087170205,21445.428972098936,21450.46269536541,21409.42798339677,21457.229405187554,21407.151189437427,21448.857818486278,21448.857818486278,21450.327246192122,19598.02325913142,21448.237637641614
637,"2849 W Lynrose Dr, Anaheim, CA 92804",0.007668286777227313,Anaheim,33.819546,-117.98713,1356.0,597.344395280236,0.016532752176489383,21450.060489862153,21455.100536478138,21414.056591132412,21461.85440251397,21411.779539582993,21453.49434092362,21453.49434092362,21454.96535397083,19603.599775369083,21452.876054443033
638,"1176 S Night Star Way, Anaheim, CA 92808",0.015620130108909029,Anaheim,33.85198,-117.729416,3573.0,461.7828155611531,0.012287239369373865,21434.135446583856,21439.161535481377,21398.137980589556,21445.94375049744,21395.86149825355,21437.558250599195,21437.558250599195,21439.025764499314,19585.62035776063,21436.935783513654
639,"360 S Coyote Ln, Anaheim, CA 92808",0.021300822900721425,Anaheim,33.85585,-117.759761,4379.0,513.8159397122631,0.013916810929660664,21436.553572758046,21441.580936482715,21400.555517796733,21448.36056242551,21398.278983374636,21439.97738577033,21439.97738577033,21441.44521922593,19588.220798578852,21439.355300380215
640,"513 N Royal St, Anaheim, CA 92806",0.007564158887856186,Anaheim,33.846276,-117.873366,1944.0,411.0082304526749,0.010697082690757967,21443.906060018755,21448.93935112763,21407.905270616495,21455.706939202086,21405.62849429827,21447.33456432864,21447.33456432864,21448.803883744204,19596.44232221785,21446.714254105573
641,"364 S Royal Ridge Dr, Anaheim, CA 92807",0.01656615172260827,Anaheim,33.849785,-117.76996,3883.0,450.6510430079835,0.011938614906319412,21436.845210537314,21441.87335706405,21400.846794237645,21448.651393711338,21398.570227862347,21440.269643076255,21440.269643076255,21441.73767281051,19588.630866951014,21439.647792145654
642,"113 S Level Pl, Anaheim, CA 92804",0.007478008893013268,Anaheim,33.831682,-117.971555,1358.0,581.6642120765832,0.016041680747940268,21449.81691276557,21454.855626989556,21413.813626565952,21461.61219924865,21411.53662924725,21453.24970931221,21453.24970931221,21454.720388280224,19603.153066545965,21452.631023592443
643,"1225 E Live Oak Ct, Anaheim, CA 92805",0.008991787373824537,Anaheim,33.830427,-117.898963,2031.0,467.65140324963073,0.012471031593120022,21444.59492719574,21449.630211910848,21408.59321962708,21456.39375142283,21406.316362060228,21448.02500932099,21448.02500932099,21449.49482860044,19597.433248446323,21447.40529634264
644,"2674 W Sereno Pl, Anaheim, CA 92804",0.007573625920256507,Anaheim,33.829793,-117.97966,2017.0,396.62865642042635,0.010246743694699608,21450.25657506761,21455.29576970093,21414.253067926118,21462.05136604595,21411.97605104541,21453.689751844653,21453.689751844653,21455.160551251975,19603.664059633313,21453.07121005163
645,"1010 E Broadway, Anaheim, CA 92805",0.01509991667851141,Anaheim,33.835306,-117.903301,3638.0,438.4277075316108,0.011555804913855857,21445.246670422985,21450.28192899843,21409.244974786237,21457.045521276217,21406.96811827223,21448.67673188549,21448.67673188549,21450.14654457891,19598.077446873005,21448.057011035533
646,"1114 W Cara Dr, Anaheim, CA 92805",0.009751043372330253,Anaheim,33.809759,-117.907449,1881.0,547.5810738968634,0.014974266219808153,21443.733473880282,21448.770161138033,21407.73112094982,21455.530852865497,21405.45420627105,21447.164665985627,21447.164665985627,21448.63483699229,19596.791631272397,21446.545373287263
647,"8267 E Marblehead Way, Anaheim, CA 92808",0.016093955080545078,Anaheim,33.853077,-117.73066,3522.0,482.68029528676885,0.01294170590772042,21434.300972908142,21439.327068922692,21398.303503601295,21446.109269411347,21396.02702097164,21437.723782562254,21437.723782562254,21439.191298239006,19585.786077252924,21437.10131759827
648,"2133 W Lullaby Ln, Anaheim, CA 92804",0.007810301730264522,Anaheim,33.811528,-117.956726,1112.0,741.9064748201439,0.021060142321851757,21447.343304715498,21452.382275867414,21411.339900769697,21459.138327511366,21409.062893038725,21450.776304509858,21450.776304509858,21452.247048021032,19600.73229919116,21450.157695928978
649,"1551 W Beacon Ave, Anaheim, CA 92802",0.007572565612627671,Anaheim,33.820498,-117.935003,1348.0,593.3887240356083,0.016408868602953236,21446.441255780654,21451.478751097653,21410.43853067593,21458.237800482813,21408.161583042318,21449.8730875133,21449.8730875133,21451.34346100784,19599.608698031723,21449.254036767466
650,"7928 E Horizon View Dr, Anaheim, CA 92808",0.007383338569010062,Anaheim,33.851964,-117.738985,1512.0,515.8068783068783,0.013979163074856487,21434.81047801109,21439.83702843874,21398.81279879254,21446.618306235614,21396.53629760151,21438.233647308974,21438.233647308974,21439.70127690876,19586.362477943778,21437.611318420353
651,"5624 E Vis, Del Valle, Anaheim, CA 92807",0.007100274300240475,Anaheim,33.845811,-117.792121,1632.0,459.55882352941177,0.012217588464794213,21438.130261839557,21443.15966627088,21402.13126497214,21449.93514854086,21399.854647247827,21441.55568994621,21441.55568994621,21443.024035044862,19590.101814548343,21440.934215737423
652,"974 S Country Glen Way, Anaheim, CA 92808",0.005916895250200396,Anaheim,33.852901,-117.724861,1046.0,597.5143403441682,0.01653807451005119,21433.8787607691,21438.904586008495,21397.881416578337,21445.687336359297,21395.60494501218,21437.301356114815,21437.301356114815,21438.768803912888,19585.324647934864,21436.678810074634
653,"211 E Wilhelmina St, Anaheim, CA 92805",0.007100274300240475,Anaheim,33.842712,-117.914329,1034.0,725.3384912959381,0.020541266793948826,21446.5501328867,21451.585565436697,21410.548356960844,21458.34880379485,21408.271493335385,21449.9803320872,21449.9803320872,21451.450188341576,19599.400527867474,21449.360663282343
654,"1527 W Palais Rd, Anaheim, CA 92802",0.008605532451891456,Anaheim,33.814105,-117.933962,1614.0,563.1970260223048,0.015463326061698828,21445.915624861416,21450.95337773703,21409.91278136844,21457.71190430804,21407.63582325788,21449.34766041446,21449.34766041446,21450.818098516454,19599.125435292164,21448.728686874234
655,"1540 W Chanticleer Rd, Anaheim, CA 92802",0.008283653350280555,Anaheim,33.812818,-117.93456,1314.0,665.9056316590563,0.018679950576811523,21445.866918156946,21450.904761707698,21409.86403296595,21457.663104151387,21407.58707116455,21449.299025471497,21449.299025471497,21450.769486312343,19599.090905173613,21448.68007910381
656,"5817 E Avenida Portola, Anaheim, CA 92807",0.0092682247199139,Anaheim,33.850897,-117.785515,1400.0,699.2857142857143,0.019725346835749495,21438.02319301404,21443.052034776807,21402.02445573413,21449.82865942473,21399.747860967953,21441.44817581443,21441.44817581443,21442.91637982617,19589.909053923693,21440.82653306504
657,"689 E Valencia St, Anaheim, CA 92805",0.007384285272250094,Anaheim,33.829668,-117.904923,1390.0,561.1510791366907,0.015399251168771546,21444.96266299082,21449.998270827582,21408.96080662624,21456.761153998814,21406.683935889614,21448.393000857526,21448.393000857526,21449.862901141645,19597.84855715334,21447.77338466806
658,"5946 E Calle Principia, Anaheim, CA 92807",0.009940384020336665,Anaheim,33.844287,-117.784414,2337.0,449.29396662387677,0.011896114035638367,21437.47774523188,21442.506852048435,21401.478885756005,21449.282938853197,21399.202280185713,21440.902937777835,21440.902937777835,21442.37120827965,19589.40720415786,21440.281374458205
659,"1424 E Bassett Way, Anaheim, CA 92805",0.007572565612627671,Anaheim,33.821357,-117.8933,1400.0,571.3485714285714,0.01571861587531566,21443.55313002581,21448.588578818544,21407.55134708923,21455.351785643918,21405.274482857494,21446.983341966807,21446.983341966807,21448.453202438966,19596.42227217557,21446.363678211812
660,"114 S Harbor Blvd, Anaheim, CA 92805",0.00538674143578244,Anaheim,33.833976,-117.918816,1528.0,372.3821989528796,0.009487393988691712,21446.249642835646,21451.285711433367,21410.247574203022,21458.047658300333,21407.97068467441,21449.680345410932,21449.680345410932,21451.15036116803,19599.199240304537,21449.06086719442
661,"1428 S Sherrill St, Anaheim, CA 92804",0.00941969723831903,Anaheim,33.811297,-117.979379,2272.0,437.9401408450704,0.01154053531743835,21448.92912792956,21453.969198947605,21412.925218160457,21460.723015969044,21410.648165638933,21452.362998260603,21452.362998260603,21453.834017481175,19602.478295028846,21451.744719161492
662,"515 N Citron St, Anaheim, CA 92805",0.009371415373077395,Anaheim,33.83825,-117.925229,2359.0,419.6269605765155,0.01096700377900187,21447.005325150978,21452.041496460628,21411.003209131708,21458.80323437919,21408.72631540565,21450.43610904436,21450.43610904436,21451.906150519775,19599.966581162746,21449.81666155613
663,"306 S Whitestone Dr, Anaheim, CA 92807",0.0149579111925066,Anaheim,33.852407,-117.769949,3404.0,464.15981198589895,0.012361682060176366,21437.02994200554,21442.05796184265,21401.0315841425,21448.836255594433,21398.755022933834,21440.4542742883,21440.4542742883,21441.922272245392,19588.795173036775,21439.832385397876
664,"3157 W Lindacita Ln, Anaheim, CA 92804",0.00705199243499884,Anaheim,33.826762,-118.000876,1565.0,475.9744408945687,0.012731692194662973,21451.542848085315,21456.583208070424,21415.538805112785,21463.33643691124,21413.261740784936,21454.976947216222,21454.976947216222,21456.44803876737,19605.122182553034,21454.358754549303
665,"7551 E Hollow Oak Rd, Anaheim, CA 92808",0.011313103718383156,Anaheim,33.85455,-117.750415,2561.0,466.6146036704412,0.012438561140201263,21435.801146309015,21440.82812263265,21399.803270301483,21447.608535378586,21397.526751706217,21439.224652701,21439.224652701,21440.69238904945,19587.413062766784,21438.60245131867
666,"933 S Roberts St, Anaheim, CA 92802",0.023667581000801585,Anaheim,33.819003,-117.940107,5008.0,499.20127795527156,0.01345910946447012,21446.696491351955,21451.73430397026,21410.69362025919,21458.49270883256,21408.41665970184,21450.1285742172,21450.1285742172,21451.599027261727,19599.9112321532,21449.50961853028
667,"1247 N Minot St, Anaheim, CA 92801",0.006522785323820916,Anaheim,33.850792,-117.966417,1236.0,557.4433656957929,0.015283133129050665,21450.804676490363,21455.84222442686,21414.801926503576,21462.60116483635,21412.524976646917,21454.236550034384,21454.236550034384,21455.706936512175,19603.95652795213,21453.617514788275
668,"2300 S Lewis St, Spc 163, Anaheim, CA 92802",0.0023572910676798375,Anaheim,33.792691,-117.8936,1904.0,130.77731092436974,0.001920820564921274,21441.547317829893,21446.584160480386,21405.54489374166,21453.344537694666,21403.267972775073,21444.978632834383,21444.978632834383,21446.448842911173,19594.64117783224,21444.35938682948
669,"1015 N Cambria Pl, Anaheim, CA 92801",0.0074789555962533,Anaheim,33.846079,-117.971499,1276.0,619.1222570532915,0.017214790488972134,21450.830835387576,21455.868854307035,21414.82786876953,21462.62683819145,21412.550899736783,21454.263081684403,21454.263081684403,21455.73358625841,19604.05480672965,21453.644187560218
670,"981 S Sarah Way, Anaheim, CA 92805",0.007005603976237268,Anaheim,33.823536,-117.895931,1346.0,549.777117384844,0.015043041832872894,21443.89324636778,21448.92871683915,21407.891453399272,21455.691879477003,21405.61458827813,21447.32347547884,21447.32347547884,21448.793341370445,19596.763869066686,21446.703818198235
671,"348 S San Vicente Ln, Anaheim, CA 92807",0.008899010456301395,Anaheim,33.846779,-117.776133,2278.0,412.64266900790165,0.010748269980202644,21437.06879462262,21442.097382935513,21401.07017442989,21448.874522589766,21398.79359002287,21440.49357680373,21440.49357680373,21441.961717307684,19588.920972409327,21439.871858192982
672,"129 N Sweetwater St, Anaheim, CA 92807",0.007573625920256507,Anaheim,33.847962,-117.820578,1492.0,536.1930294906166,0.014617615843832083,21440.293765080376,21445.324435486957,21404.294184038048,21452.09734644181,21402.017514634776,21443.720195179685,21443.720195179685,21445.188857622445,19592.447705771465,21443.099100072453
673,"905 S Reseda St, Anaheim, CA 92806",0.007100264833208075,Anaheim,33.827586,-117.888575,1248.0,600.9607371794872,0.016646008645468245,21443.659542383833,21448.694464227316,21407.658002016808,21455.45874106523,21405.38115925073,21447.089337287052,21447.089337287052,21448.559065621885,19596.447273502054,21446.469515646182
674,"1250 S Brookhurst St, Unit 1104, Anaheim, CA 92804",0.00284010972009619,Anaheim,33.815923,-117.957011,1172.0,255.9726962457338,0.005841685258848947,21447.67418103659,21452.712954419574,21411.670867968554,21459.469407566496,21409.393868281342,21451.107024322017,21451.107024322017,21452.577718227476,19601.031034314503,21450.48835646002
675,"5534 E Vis, Del Dia, Anaheim, CA 92807",0.007336950110248491,Anaheim,33.8468,-117.793833,1646.0,470.83839611178615,0.01257084172398826,21438.321226967022,21443.350666208757,21402.322214012675,21450.126077713543,21400.045594864703,21441.746682630353,21441.746682630353,21443.215036448644,19590.297081418077,21441.125218837424
676,"120 S Seneca Cir, Unit 10, Anaheim, CA 92805",0.005774889764195586,Anaheim,33.832892,-117.922006,1292.0,472.1362229102167,0.012611487018219653,21446.398555189226,21451.434829319343,21410.396391946837,21458.196358727953,21408.119494044182,21449.829420434602,21449.829420434602,21451.299487721415,19599.378875764785,21449.210003790606
677,"511 N Century Dr, Anaheim, CA 92805",0.007478008893013268,Anaheim,33.844206,-117.898873,1581.0,499.6204933586338,0.013472238437794293,21445.562981784245,21450.59759922848,21409.561581274207,21457.362493271317,21407.28475087522,21448.99253585072,21448.99253585072,21450.462187765464,19598.293696198212,21448.37262289356
678,"1616 S Euclid St, Spc 20, Anaheim, CA 92802",0.001183379050040079,Anaheim,33.808429,-117.940467,1400.0,89.28571428571429,0.0006213881941705365,21445.974342333007,21451.01268104099,21409.97122940323,21457.770017812993,21407.69424744148,21449.406841536198,21449.406841536198,21450.8774265308,19599.273720706184,21448.78804353047
679,"609 S Iron Horse Ln, Anaheim, CA 92807",0.007810301730264522,Anaheim,33.83876,-117.77826,1538.0,536.4109232769831,0.014624439833804218,21436.651796061567,21441.680872613753,21400.652950676398,21448.457021261067,21398.37634635619,21440.07696462439,21440.07696462439,21441.54522757724,19588.581094839883,21439.455392289652
680,"435 W Center St, Promenade Unit 330, Anaheim, CA 92805",0.005670752407792059,Anaheim,33.833928,-117.918584,1547.0,387.2010342598578,0.009951489753971846,21446.229844128,21451.265903880158,21410.227779569363,21458.027868719826,21407.950890401407,21449.660539701894,21449.660539701894,21451.13055324194,19599.178191989857,21449.041058836294
681,"1211 E Wilhelmina St, Anaheim, CA 92805",0.007185477591843361,Anaheim,33.845489,-117.904481,1458.0,520.5761316872428,0.014128526385233034,21446.05021427825,21451.085039677942,21410.048717942875,21457.849511202046,21407.77187906195,21449.479932944636,21449.479932944636,21450.949636980604,19598.810185193037,21448.86008226228
682,"2509 W Crescent Ave, Anaheim, CA 92801",0.007100274300240475,Anaheim,33.839825,-117.972205,1259.0,595.7108816521048,0.016481593853879102,21450.4385935042,21455.476947217336,21414.435472981088,21462.23425135328,21412.158490326103,21453.871104753416,21453.871104753416,21455.341693294697,19603.71606006993,21453.252310970845
683,"527 N Anna Dr, Anaheim, CA 92805",0.05964230412201999,Anaheim,33.846161,-117.896721,10200.0,617.6470588235294,0.017168590282464744,21445.549088850534,21450.58350874874,21409.547779305707,21457.348803940124,21407.27095695618,21448.978486573567,21448.978486573567,21450.448088954312,19598.249577015016,21448.35851443177
684,"8051 E Snowberry Ln, Anaheim, CA 92808",0.006153571060208411,Anaheim,33.862712,-117.740092,1374.0,473.0713245997089,0.0126407725001897,21435.649223198478,21440.675309776958,21399.651758038355,21447.457528767292,21397.375275768907,21439.072025436424,21439.072025436424,21440.539538681707,19587.12556871995,21438.4495575636
685,"120 W Simmons Ave, Anaheim, CA 92802",0.00837832367428376,Anaheim,33.792517,-117.907203,1563.0,566.2188099808061,0.015557962185907015,21442.496944438106,21447.53444957948,21406.49421542709,21454.29348092311,21404.217267466305,21445.928783795458,21445.928783795458,21447.399159944176,19595.687294040094,21445.30973623463
686,"752 S Fairway Ln, Anaheim, CA 92807",0.011833790500400792,Anaheim,33.837894,-117.766525,2436.0,513.1362889983579,0.013895525652399742,21435.761169615464,21440.789722958387,21399.762565762405,21447.566934240327,21397.48598280657,21439.185924071,21439.185924071,21440.65405586934,19587.615078776616,21438.564195065264
687,"732 N East St, Anaheim, CA 92805",0.030767855301042056,Anaheim,33.846053,-117.904704,6750.0,481.48148148148147,0.012904161498941462,21446.10586616585,21451.140675155028,21410.10437737751,21457.90517997617,21407.82753916417,21449.535571846656,21449.535571846656,21451.005271765003,19598.8630180177,21448.915716244202
688,"773 S Kroeger St, Anaheim, CA 92805",0.007571732513776443,Anaheim,33.828719,-117.904044,1716.0,466.0839160839161,0.012421941084947862,21444.83340360966,21449.86901483872,21408.831545703735,21456.631891183773,21406.554674831314,21448.26374415619,21448.26374415619,21449.733645297176,19597.720519281364,21447.64412899101
689,"607 S Dale Ave, Anaheim, CA 92804",0.006522785323820916,Anaheim,33.824466,-117.984982,1220.0,564.7540983606557,0.01551209039867227,21450.256380042178,21455.296086723905,21414.252637520967,21462.05064308924,21411.975599801066,21453.689962073822,21453.689962073822,21455.160889874827,19603.74243878778,21453.071573717552
690,"314 S Velva Pl, Anaheim, CA 92804",0.00793337315146869,Anaheim,33.828261,-117.946856,1374.0,609.8981077147016,0.01692590890295874,21447.82834048812,21452.866032107366,21411.82552487334,21459.624682156486,21409.548569221493,21451.260327633845,21451.260327633845,21452.73075028352,19601.01837716153,21450.64133562205
691,"1717 N Tympani Cir, Anaheim, CA 92807",0.007336950110248491,Anaheim,33.865877,-117.806351,1372.0,564.868804664723,0.015515682766686746,21440.555556314353,21445.58468015958,21404.556688502315,21452.36073090223,21402.28008218018,21443.98076245465,21443.98076245465,21445.449037077513,19592.470934409946,21443.359204047567
692,"1875 W Falmouth Ave, Unit 58, Anaheim, CA 92801",0.005017527172169935,Anaheim,33.847788,-117.950644,939.0,564.4302449414271,0.01550194796862821,21449.476888771525,21454.513823046156,21413.474421295705,21461.27401034873,21411.197496451437,21452.90827659304,21452.90827659304,21454.378509260925,19602.541791136453,21452.289057556165
693,"801 S Anaheim Blvd, Anaheim, CA 92805",0.007242279786245284,Anaheim,33.826565,-117.911122,1753.0,436.39475185396464,0.011492136879124848,21445.18155848027,21450.217613697416,21409.179496171713,21456.979588254173,21406.902607207845,21448.61225042499,21448.61225042499,21450.08226287858,19598.134896476215,21447.992768264736
694,"5251 E Honeywood Ln, Anaheim, CA 92807",0.012307142120416822,Anaheim,33.84627,-117.801372,2286.0,568.678915135608,0.01563500767300746,21438.816574104116,21443.84640168002,21402.817381957193,21450.621024535514,21400.54074695843,21442.242337118892,21442.242337118892,21443.710788289853,19590.849286502198,21441.62098962298
695,"2648 W Madison Cir, Unit 6, Anaheim, CA 92801",0.006238774351811297,Anaheim,33.836093,-117.976355,1539.0,428.20012995451594,0.011235497997402807,21450.468233232874,21455.506965940265,21414.46493843355,21462.263500344976,21412.187940350457,21453.90104443281,21453.90104443281,21455.371728003982,19603.80369087208,21453.282364211685
696,"6497 E Via, Estrada, Anaheim, CA 92807",0.012022184445167172,Anaheim,33.847935,-117.765832,2271.0,559.1809775429326,0.015337551596038985,21436.42259371575,21441.45063054208,21400.424228107153,21448.228890098115,21398.147666216435,21439.8469394207,21439.8469394207,21441.314941667355,19588.193723605513,21439.22505565638
697,"1054 S Verde St, Anaheim, CA 92805",0.006996136943836948,Anaheim,33.82167,-117.889606,1236.0,597.8964401294498,0.016550041097747874,21443.314077206433,21448.349333289734,21407.312383017554,21455.112931564196,21405.035526640804,21446.744136622772,21446.744136622772,21448.213948784767,19596.154954191887,21446.124415144375
698,"1238 N Lombard Dr, Anaheim, CA 92801",0.007952307216269331,Anaheim,33.852168,-117.933933,1596.0,526.3157894736842,0.014308280786821547,21448.604950564764,21453.640870769632,21412.60294986099,21460.403117843893,21410.326066333128,21452.035535787563,21452.035535787563,21453.50551422149,19601.519010758315,21451.416012965794
699,"5406 E Estate Ridge Rd, Anaheim, CA 92807",0.01183284379716076,Anaheim,33.837511,-117.797491,2654.0,470.9495101733233,0.012574321590276953,21437.922639014112,21442.952701266036,21401.923338776298,21449.72684810139,21399.646694221523,21441.34858772044,21441.34858772044,21442.817097780724,19589.996184875952,21440.727310578284
700,"5573 E Vis, Del Rio, Anaheim, CA 92807",0.006390246870216427,Anaheim,33.849189,-117.792797,1116.0,604.8387096774194,0.016767458852375912,21438.417015133626,21443.44628956558,21402.418078188417,21450.22203562279,21400.141465762317,21441.842340368217,21441.842340368217,21443.310652854994,19590.367079743544,21441.220827200334
701,"206 N Sagamore St, Anaheim, CA 92807",0.007572679217016475,Anaheim,33.846414,-117.82567,1300.0,615.3076923076923,0.01709532608383188,21440.544185025134,21445.575174929174,21404.54445663938,21452.3474370775,21402.267774201715,21443.97086798929,21443.97086798929,21445.439610535068,19592.745761600298,21443.349868577527
702,"120 N Wade Cir, Anaheim, CA 92807",0.01183284379716076,Anaheim,33.852564,-117.794615,2330.0,536.4377682403433,0.014625280563426787,21438.784269564952,21443.813469108405,21402.785367108696,21450.589367026583,21400.50875773106,21442.209535545964,21442.209535545964,21443.677829236287,19590.72085980177,21441.587999922696
703,"5095 E Greensboro Ln, Anaheim, CA 92807",0.012070466310408806,Anaheim,33.842777,-117.805269,2319.0,549.8059508408797,0.015043944838039449,21438.84491279881,21443.875095987492,21402.84555664558,21450.648996841424,21400.568907140823,21442.270957251407,21442.270957251407,21443.73949759246,19590.932000425564,21441.649716280568
704,"1406 S Urban St, Anaheim, CA 92805",0.009930916987936344,Anaheim,33.836467,-117.913622,1881.0,557.6820839978735,0.015290609300476791,21446.05853038015,21451.094229388902,21410.056631880037,21457.85692688512,21407.779757409276,21449.488940444786,21449.488940444786,21450.958863537187,19598.952466945088,21448.869351504767
705,"300 S Smokeridge Ter, Anaheim, CA 92807",0.01135097184798444,Anaheim,33.848471,-117.797594,2235.0,536.4653243847874,0.014626143565793644,21438.705257502323,21443.734797353285,21402.706198080738,21450.510004412907,21400.429574821275,21442.1307928037,21442.1307928037,21443.599171831655,19590.694455643636,21441.509359125088
706,"1832 W Willow Ave, Anaheim, CA 92804",0.014199488292852114,Anaheim,33.825988,-117.947254,3976.0,377.2354124748491,0.00963938675984328,21447.69577577794,21452.73359588926,21411.692901083617,21459.491985050194,21409.415940202754,21451.127864611557,21451.127864611557,21452.598319486628,19600.9062458821,21450.508911108704
707,"1919 W Coronet Ave, Spc 21, Anaheim, CA 92801",0.0025087635860849677,Anaheim,33.852178,-117.94533,1640.0,161.58536585365854,0.0028856661504895135,21449.41153700117,21454.448004635047,21413.409284245667,21461.209139622788,21411.132378406364,21452.84255550627,21452.84255550627,21454.312671168143,19602.405204117596,21452.223196656003
708,"712 S Lost Canyon Rd, Anaheim, CA 92808",0.013963872790472934,Anaheim,33.858111,-117.751928,3097.0,476.2673555053277,0.012740865684186668,21436.160026076082,21441.186903903723,21400.162195485005,21447.96751642449,21397.8856809037,21439.583454531527,21439.583454531527,21441.051166164005,19587.754896559396,21438.96122362495
709,"138 N Wade Cir, Anaheim, CA 92807",0.011313103718383156,Anaheim,33.853011,-117.794705,2330.0,512.8755364806867,0.013887359414181252,21438.822253638107,21443.851436006113,21402.82335909913,21450.62736877547,21400.54675042151,21442.24750602773,21442.24750602773,21443.715795409382,19590.756004397565,21441.625965257226
710,"613 N Glenwood Pl, Anaheim, CA 92805",0.010413735640352697,Anaheim,33.84423,-117.902796,1805.0,609.4182825484764,0.01691088175520341,21445.842045275716,21450.876850218152,21409.840558391617,21457.64136338454,21407.563720348033,21449.271747743747,21449.271747743747,21450.74144666013,19598.60000708753,21448.651890944995
711,"6279 E Paseo Aldeano, Anaheim, CA 92807",0.008946345618302999,Anaheim,33.860275,-117.774282,1249.0,756.605284227382,0.021520479120206396,21437.892827586125,21442.92067743807,21401.894548038003,21449.69931585857,21399.617993750475,21441.317025374246,21441.317025374246,21442.784980664695,19589.62731793104,21440.695085514024
712,"2902 W Rome Ave, Anaheim, CA 92804",0.009448098335519992,Anaheim,33.820515,-117.989281,2226.0,448.33782569631626,0.011866169647547158,21450.28112834414,21455.32123170598,21414.27720350072,21462.074982380276,21412.00014963815,21453.71502432495,21453.71502432495,21455.18605159021,19603.827925123365,21453.096754835282
713,"5815 E La Palma Ave, Spc 239, Anaheim, CA 92807",0.0019407416420657297,Anaheim,33.861224,-117.78435,1440.0,142.36111111111111,0.0022836016135767195,21438.671479572866,21443.699768389153,21402.672997326383,21450.477515286875,21400.3964251107,21442.096024790826,21442.096024790826,21443.564090116648,19590.469046722872,21441.474216369927
714,"2300 S Lewis St, Spc 101, Anaheim, CA 92802",0.002035411966068936,Anaheim,33.792177,-117.895344,1512.0,142.1957671957672,0.0022784233786252986,21441.634297603763,21446.671248856543,21405.631823535372,21453.43140547762,21403.354898144597,21445.065698562837,21445.065698562837,21446.53593586719,19594.744347590837,21444.446485092823
715,"1541 E La Palma Ave, Unit A2, Anaheim, CA 92805",0.004250697547743964,Anaheim,33.848251,-117.8963,975.0,460.5128205128205,0.012247465708917544,21445.667129572605,21450.70142867454,21409.66587563492,21457.4669690991,21407.389058205357,21449.096431698985,21449.096431698985,21450.566003784337,19598.34844891143,21448.47642335917
716,"2025 W Dogwood Ave, Anaheim, CA 92801",0.006153571060208411,Anaheim,33.846402,-117.95298,998.0,651.3026052104209,0.018222613505800678,21449.54407553309,21454.58118877596,21413.541525709345,21461.34101259289,21411.264593575997,21452.97560499831,21452.97560499831,21454.4458825388,19602.636070673467,21452.356439581326
717,"1523 W Beacon Ave, Anaheim, CA 92802",0.008188983026277347,Anaheim,33.820508,-117.933767,2054.0,421.12950340798443,0.011014060362788073,21446.35455793748,21451.391993352452,21410.35186040103,21458.151164432224,21408.074915208057,21449.786342258376,21449.786342258376,21451.256700736845,19599.513279931263,21449.16727356922
718,"5815 E La Palma Ave, Spc 212, Anaheim, CA 92807",0.0015137784808112692,Anaheim,33.860886,-117.785533,1456.0,109.82142857142857,0.0012645249751370405,21438.73117069021,21443.759532709824,21402.732654654923,21450.537130966368,21400.45607945096,21442.155773844235,21442.155773844235,21443.623857523344,19590.53963745956,21441.533987347128
719,"5899 E Trapper Trl, Anaheim, CA 92807",0.01405854311447614,Anaheim,33.839257,-117.786503,3191.0,465.37135694139766,0.012399625182671875,21437.269540007263,21442.298989402465,21401.2705225336,21449.074380802904,21398.993902990915,21440.69500366596,21440.69500366596,21442.163360081195,19589.252655808512,21440.07354297891
720,"8504 E Meadowridge St, Anaheim, CA 92808",0.009372362076317427,Anaheim,33.867505,-117.736535,1378.0,718.4325108853411,0.0203249855412544,21435.737046407172,21440.762731103663,21399.739766836145,21447.545765845825,21397.463300974046,21439.15953059798,21439.15953059798,21440.626943063722,19587.151311755668,21438.536942349172
721,"8448 E Cody Way, Unit 43, Anaheim, CA 92808",0.006248241384211618,Anaheim,33.857739,-117.727872,1046.0,630.9751434034417,0.017585998768671486,21434.433862616217,21439.45960005737,21398.436558888294,21446.24252836326,21396.16009089674,21437.856388499422,21437.856388499422,21439.323814254458,19585.86328056176,21437.233816128257
722,"5 Walnut Via, Anaheim, CA 92801",0.0006532252356221237,Anaheim,33.860027,-117.914301,888.0,77.70270270270271,0.0002586318429790885,21447.772623125355,21452.80722133864,21411.77123112647,21459.572153362635,21409.49440147019,21451.20216205635,21451.20216205635,21452.67180904208,19600.488405909877,21450.582243202363
723,"996 S Ridgecrest Cir, Anaheim, CA 92807",0.00941969723831903,Anaheim,33.840793,-117.746168,1887.0,527.2919978802332,0.014338853647517082,21434.527648463576,21439.555082272003,21398.529561468626,21446.33456692224,21396.253024223643,21437.95151686314,21437.95151686314,21439.419367990828,19586.21660746737,21437.329452589416
724,"1936 W Harle Ave, Anaheim, CA 92804",0.007564158887856186,Anaheim,33.809618,-117.952015,1126.0,709.5914742451155,0.02004810226531415,21446.875095059357,21451.91393166938,21410.871753044506,21458.670256791258,21408.594750798442,21450.30798835446,21450.30798835446,21451.778698152466,19600.245984940313,21449.68933948709
725,"1709 N Holbrook St, Anaheim, CA 92807",0.006522785323820916,Anaheim,33.866601,-117.813586,1473.0,467.75288526816024,0.012474209803423057,21441.11811842803,21446.147555618354,21405.119105983413,21452.92296993341,21402.84248686726,21444.54357257476,21444.54357257476,21446.011925743285,19593.07849057408,21443.922107996153
726,"1616 S Euclid St, Spc 15, Anaheim, CA 92802",0.0009457565367920313,Anaheim,33.808309,-117.940517,1057.0,94.5127719962157,0.0007850890045288401,21445.96939420251,21451.007741088248,21409.96627751289,21457.765061254202,21407.689295218326,21449.401899877674,21449.401899877674,21450.872486923054,19599.27005419452,21448.78310432265
727,"6525 E Camino Vis, Unit 6, Anaheim, CA 92807",0.006625975976984411,Anaheim,33.839986,-117.761626,1123.0,623.2413178984862,0.017343791092297944,21435.562955779264,21440.591172620698,21399.564507231775,21447.36906714198,21397.287938010882,21438.987443916834,21438.987443916834,21440.455491345016,19587.366347862066,21438.36561412681
728,"1850 W Greenleaf Ave Apt D, Anaheim, CA 92801",0.003408131664115428,Anaheim,33.842493,-117.947593,690.0,521.7391304347826,0.014164949139287479,21448.88674407016,21453.92378641059,21412.88422696784,21460.68375453649,21410.60729773384,21452.318217395838,21452.318217395838,21453.78847718949,19601.97142586173,21451.699030774613
729,"6831 E Avenida De Santiago, Anaheim, CA 92807",0.026507690720897772,Anaheim,33.830544,-117.750935,3613.0,774.9792416274564,0.022095914074719766,21434.139387541298,21439.167544051787,21398.140967057127,21445.945561741733,21395.86440032464,21437.563827877988,21437.563827877988,21439.031860246745,19585.94125264425,21436.941980103584
730,"1218 W Cara Dr, Anaheim, CA 92805",0.008037510507872218,Anaheim,33.809563,-117.907741,1242.0,683.5748792270531,0.019233315453478457,21443.740262857165,21448.776973586984,21407.73789912569,21455.537617644117,21405.460983490902,21447.17147353929,21447.17147353929,21448.64165043119,19596.801984462705,21446.55218787333
731,"1302 W Arlington Ave, Anaheim, CA 92801",0.006996136943836948,Anaheim,33.852646,-117.935989,1218.0,606.7323481116584,0.016826763754555926,21448.78412819585,21453.82012425143,21412.782092554957,21460.58221720592,21410.50520593424,21452.21477345594,21452.21477345594,21453.684770900665,19601.708852800843,21451.595273349445
732,"407 N Vine St, Anaheim, CA 92805",0.01135097184798444,Anaheim,33.840826,-117.907276,2683.0,446.8878121505777,0.011820758174092208,21445.91807699238,21450.95326113511,21409.916415516574,21457.717004236856,21407.639562022472,21449.34807957246,21449.34807957246,21450.817873569464,19598.733794189204,21448.72833638061
733,"1618 S Urbana St, Anaheim, CA 92805",0.007384285272250094,Anaheim,33.810362,-117.906919,1338.0,582.9596412556053,0.016082250953610974,21443.738634228466,21448.775266985427,21407.736306374416,21455.53606939035,21405.459393915102,21447.169783200407,21447.169783200407,21448.639940540852,19596.78840222653,21446.550474171927
734,"629 S Dale Ave, Anaheim, CA 92804",0.007090807267840154,Anaheim,33.823586,-117.984974,1229.0,609.4385679414158,0.016911517052429215,21450.19360311373,21455.23335174895,21414.189841318806,21461.987822935425,21411.912801892766,21453.6272183466,21453.6272183466,21455.098156670265,19603.68644019864,21453.008842565767
735,"7615 E Calle Durango, Anaheim, CA 92808",0.01017705983034468,Anaheim,33.863429,-117.76544,2523.0,426.08006341656755,0.011169101827798936,21437.491138223588,21442.518410684992,21401.493125243524,21449.29822144262,21399.216594529047,21440.914879045387,21440.914879045387,21442.38268957069,19589.139288244154,21440.292766261646
736,"200 N Grand Ave, Spc 12, Anaheim, CA 92801",0.0027927745580945866,Anaheim,33.83294,-117.996522,1440.0,204.86111111111111,0.004240974425213907,21451.67163405728,21456.71148760751,21415.667823811335,21463.46574499114,21413.390780088594,21455.105332380383,21455.105332380383,21456.576296939522,19605.17255463652,21454.48698794763
737,"565 S Casita St, Anaheim, CA 92805",0.006720646300987618,Anaheim,33.831882,-117.905884,1300.0,546.0769230769231,0.014927159277095306,21445.187174271832,21450.22272179551,21409.185345634283,21456.98572733635,21406.908477350396,21448.61746441365,21448.61746441365,21450.087349563473,19598.062598445555,21447.997830139797
738,"1725 N Rainwood Cir, Apt B, Anaheim, CA 92807",0.004724049167759996,Anaheim,33.863816,-117.794555,942.0,529.723991507431,0.014415018738780311,21439.57607210649,21444.60472739718,21403.577420618647,21451.381729861867,21401.30083343217,21443.000907390342,21443.000907390342,21444.469064567995,19591.424921190126,21442.379208688966
739,"1218 N Riviera St, Anaheim, CA 92801",0.006863598490232459,Anaheim,33.851499,-117.926742,1285.0,564.2023346303502,0.01549481028148591,21448.049184131345,21453.084790788223,21412.047327829925,21459.847674860976,21409.770457084316,21451.479521182122,21451.479521182122,21452.94942102114,19600.918158406836,21450.859904450357
740,"1506 S Urbana St, Anaheim, CA 92805",0.008037510507872218,Anaheim,33.809259,-117.906311,1550.0,547.741935483871,0.01497930407735768,21443.61764889043,21448.654305487416,21407.61531008572,21455.41505953675,21405.33839665775,21447.04881672548,21447.04881672548,21448.518980049615,19596.671730770133,21446.429514847467
741,"1116 W Locust Ave, Anaheim, CA 92802",0.008472993998286967,Anaheim,33.822551,-117.924598,1658.0,539.8069963811821,0.014730797932372081,21445.850630969944,21450.887527266623,21409.848181530626,21457.64779345121,21407.571258299893,21449.281988596063,21449.281988596063,21450.752211916384,19598.929373483643,21448.66275840173
742,"48 Orange Via, Anaheim, CA 92801",0.0007564158887856185,Anaheim,33.862785,-117.912253,1120.0,71.33928571428571,5.934257254328621e-05,21447.822871912682,21452.857238972592,21411.82158634533,21459.622640357346,21409.54476610676,21451.252227905003,21451.252227905003,21452.72181692659,19600.50292606441,21450.63223979366
743,"6560 E Circulo Dali, Anaheim, CA 92807",0.007336950110248491,Anaheim,33.837372,-117.758967,2072.0,374.03474903474904,0.009539148494293633,21435.19010021336,21440.21831483322,21399.1916527493,21446.99621404519,21396.915083625983,21438.614586578497,21438.614586578497,21440.082633467657,19586.995174321397,21437.99275614585
744,"8153 E Carnation Way, Anaheim, CA 92808",0.011597114690392776,Anaheim,33.863704,-117.746081,2216.0,552.797833935018,0.015137644528024461,21436.14260786467,21441.168935076064,21400.145031507138,21447.950665352037,21397.868539404153,21439.565600559225,21439.565600559225,21441.033174121272,19587.653164887888,21438.943204730687
745,"2861 E Jackson Ave Unit D, Anaheim, CA 92806",0.005197400787776028,Anaheim,33.844834,-117.867731,1020.0,538.2352941176471,0.014681575415913967,21443.405705414527,21448.43879485585,21407.405008993544,21455.20679266227,21405.128240904338,21446.834050101206,21446.834050101206,21448.303318972576,19595.91375048274,21446.21367949112
746,"1063 S Taylor Ct, Anaheim, CA 92808",0.018318707694620424,Anaheim,33.84736,-117.734192,3551.0,544.9169248099128,0.014890830491985032,21434.14601893145,21439.172560110674,21398.14834408707,21445.95385700362,21395.871843285942,21437.56918088467,21437.56918088467,21439.03680819753,19585.70020522873,21436.946849266613
747,"645 S Magnolia Ave, Anaheim, CA 92804",0.01883939447663806,Anaheim,33.823056,-117.976403,3683.0,540.3203909856096,0.014746876406617643,21449.549941463134,21454.589303691686,21413.546357386094,21461.344559992132,21411.269333697393,21452.98325085438,21452.98325085438,21454.454092319582,19602.986975502987,21452.364759324657
748,"2166 W Brownwood Ave, Anaheim, CA 92801",0.015383927650521028,Anaheim,33.83685,-117.957952,4537.0,358.1661891117478,0.009042177490243743,21449.220296849322,21454.25810861925,21413.217425754814,21461.01651398248,21410.940465185417,21452.65237913948,21452.65237913948,21454.12283184927,19602.42121884306,21452.03342304401
749,"110 N Belinda Cir, Anaheim, CA 92801",0.013064504712442474,Anaheim,33.832673,-117.965706,3687.0,374.2880390561432,0.009547081022315006,21449.473328344753,21454.511713770833,21413.470193388148,21461.26895396725,21411.193209459998,21452.90586465587,21452.90586465587,21454.37646119571,19602.76089548564,21452.287080434853
750,"938 N Harbor Blvd, Anaheim, CA 92805",0.006144104027808091,Anaheim,33.846507,-117.923314,1370.0,473.7226277372263,0.01266116998904587,21447.45379464313,21452.4894766365,21411.45190375791,21459.252208010603,21409.175029954476,21450.884191294594,21450.884191294594,21452.354110052944,19600.337554273476,21450.26459717117
751,"908 S Anaheim Blvd, Anaheim, CA 92805",0.010366400478351093,Anaheim,33.82291,-117.909306,2334.0,469.1516709511568,0.012518016924466335,21444.794697851827,21449.83084160893,21408.79259485605,21456.592636550453,21406.51570229305,21448.225459854893,21448.225459854893,21449.695494528452,19597.76371724815,21447.60600424659
752,"912 S Anaheim Blvd, Anaheim, CA 92805",0.010366400478351093,Anaheim,33.822762,-117.909257,2234.0,490.1521933751119,0.013175710550431563,21444.780767735567,21449.816916257656,21408.778662549066,21456.5787015294,21406.501769792252,21448.211533509253,21448.211533509253,21449.681569378292,19597.75059369694,21447.592079329483
753,"1888 S Westside Dr, Unit 60, Anaheim, CA 92805",0.00941969723831903,Anaheim,33.802013,-117.894947,2193.0,453.71637026903784,0.012034614718152342,21442.301719650593,21447.33817847135,21406.29947205562,21454.099334799554,21404.02256670661,21445.73273090923,21445.73273090923,21447.20284470502,19595.332599212747,21445.113369853243
754,"8470 E Amberwood St, Anaheim, CA 92808",0.008140701161035713,Anaheim,33.869028,-117.739256,1220.0,704.8360655737705,0.019899172543049917,21436.037080494025,21441.062822932567,21400.039774207246,21447.845740317585,21397.763305981844,21439.459610393493,21439.459610393493,21440.92703732403,19587.45856986737,21438.837039420963
755,"1250 S Brookhurst St, Unit 2027, Anaheim, CA 92804",0.004724049167759996,Anaheim,33.815923,-117.957011,1172.0,425.7679180887372,0.01115932607135134,21447.67418103659,21452.712954419574,21411.670867968554,21459.469407566496,21409.393868281342,21451.107024322017,21451.107024322017,21452.577718227476,19601.031034314503,21450.48835646002
756,"234 N Pageant St, Anaheim, CA 92807",0.008046030837032507,Anaheim,33.847411,-117.825364,1260.0,674.5238095238095,0.01894985436942466,21440.593080352555,21445.624007563056,21404.59338086277,21452.39639697691,21402.31670098089,21444.019713701917,21444.019713701917,21445.488440524703,19592.784777764697,21443.398695506185
757,"6041 E Avenida Arbol, Anaheim, CA 92807",0.009230356590312617,Anaheim,33.856651,-117.781343,2081.0,468.5247477174435,0.01249838296458387,21438.135431567967,21443.163795668228,21402.136914665625,21449.941389989304,21399.86033938781,21441.560036345858,21441.560036345858,21443.02812057554,19589.947448096966,21440.938250508454
758,"1405 S Sherrill St, Anaheim, CA 92804",0.00780935502702449,Anaheim,33.81221,-117.979979,1530.0,539.1503267973857,0.014710232377339245,21449.036107593227,21454.076163517137,21413.032204744566,21460.830011143968,21410.755152835274,21452.469965982258,21452.469965982258,21453.94098141289,19602.582378063093,21451.85168235351
759,"3139 W Tyler Ave, Anaheim, CA 92801",0.007374818239849773,Anaheim,33.833997,-117.999967,1560.0,499.35897435897436,0.013464048194919734,21451.990014402243,21457.029982641787,21415.986151394627,21463.784006930957,21413.709102998946,21455.42380350712,21455.42380350712,21456.894796808618,19605.506807868125,21454.805493422406
760,"6401 E Nohl Ranch Rd, Apt 75, Anaheim, CA 92807",0.00851086212788825,Anaheim,33.84068,-117.766075,2145.0,419.1142191142191,0.0109509457598387,21435.926473761214,21440.954871381375,21399.927941736514,21447.73239872253,21397.651365131896,21439.351104982605,21439.351104982605,21440.81919772454,19587.755610680495,21438.729329321053
761,"2895 E Cinnamon Pl, Anaheim, CA 92806",0.008993680780304601,Anaheim,33.843161,-117.870812,2260.0,420.353982300885,0.010989772619909877,21443.505192827415,21448.538510958933,21407.504391039387,21455.30604435729,21405.227613627198,21446.933718508302,21446.933718508302,21448.403044719213,19596.04777368172,21446.31341640551
762,"1800 W Gramercy Ave, Apt 41, Anaheim, CA 92801",0.005490878792185967,Anaheim,33.84117,-117.945075,1340.0,432.8358208955224,0.011380678403980068,21448.615140685455,21453.65212562878,21412.61265003196,21460.412210449573,21410.335723140277,21452.04656857488,21452.04656857488,21453.516813989474,19601.692489532685,21451.427364772455
763,"525 N Gilbert St, Spc 151, Anaheim, CA 92801",0.0007478955596253301,Anaheim,33.837993,-117.96834,1120.0,70.53571428571429,3.417635067937998e-05,21450.03573580167,21455.073991886253,21414.03266023698,21461.83149449369,21411.755681563787,21453.468169768847,21453.468169768847,21454.9387338496,19603.30040743745,21452.849346757357
764,"2652 W Madison Cir, Anaheim, CA 92801",0.006238774351811297,Anaheim,33.836093,-117.976355,1551.0,424.8871695680206,0.011131742820017896,21450.468233232874,21455.506965940265,21414.46493843355,21462.263500344976,21412.187940350457,21453.90104443281,21453.90104443281,21455.371728003982,19603.80369087208,21453.282364211685
765,"3595 W Greentree Cir, Unit F, Anaheim, CA 92804",0.004970192010168332,Anaheim,33.812742,-118.011481,1025.0,512.1951219512196,0.0138660502157713,21451.301916975404,21456.343461033794,21415.29733002438,21463.094284974464,21413.02021752928,21454.736953222444,21454.736953222444,21456.20834168417,19605.064273960877,21454.11911539891
766,"722 S Citron St, Anaheim, CA 92805",0.007193997921003649,Anaheim,33.824922,-117.920233,1318.0,576.5553869499241,0.015881682741502964,21445.70962233171,21450.746194679927,21409.707321967457,21457.507118807815,21407.430411931902,21449.14072356959,21449.14072356959,21450.61086566735,19598.739430346548,21448.521396320608
767,"320 N Park Vista St, Spc 92, Anaheim, CA 92806",0.002167950419673425,Anaheim,33.842922,-117.863648,2160.0,106.01851851851852,0.0011454255712543548,21442.981830100565,21448.01481513291,21406.98118184683,21454.783025147677,21404.704418021225,21446.410092139555,21446.410092139555,21447.879334850728,19595.476160504724,21445.789690275647
768,"2283 W Arlington Ave, Anaheim, CA 92801",0.006625975976984411,Anaheim,33.852706,-117.963466,1315.0,532.2433460076046,0.014493919794804562,21450.73132472204,21455.76863874399,21414.728682348017,21462.528054236038,21412.45174201711,21454.163013135618,21454.163013135618,21455.633340963548,19603.847686005825,21453.543907805564
769,"6060 E Overland Cir, Anaheim, CA 92807",0.007185477591843361,Anaheim,33.83983,-117.775981,1462.0,519.1518467852258,0.014083920680541302,21436.566426768895,21441.59534213514,21400.56765575878,21448.37181806083,21398.29105801653,21439.991467764154,21439.991467764154,21441.45969030289,19588.47147451599,21439.369847151658
770,"795 S Quail Cir, Anaheim, CA 92807",0.012307142120416822,Anaheim,33.842059,-117.755755,3000.0,433.3333333333333,0.011396259481087627,21435.294718459205,21440.322552909896,21399.29644642507,21447.10122385482,21397.019892814315,21438.71890395931,21438.71890395931,21440.186855513584,19587.04093922153,21438.0969596449
771,"251 N Magnolia Ave, Unit 2, Anaheim, CA 92801",0.007431620434251697,Anaheim,33.835372,-117.976193,1606.0,488.7920298879203,0.013133112997964196,21450.405802117588,21455.44456172557,21414.402494959206,21462.201041526412,21412.125495782293,21453.838634605243,21453.838634605243,21455.309324924645,19603.745725942405,21453.219962448587
772,"132 S Calle Da Gama, Anaheim, CA 92807",0.008520329160288569,Anaheim,33.850832,-117.786361,1400.0,642.8571428571429,0.017958118811528485,21438.078384846714,21443.10727045667,21402.079627328756,21449.883806060494,21399.803030772542,21441.503402350332,21441.503402350332,21442.971617354324,19589.97066925026,21440.881772731864
773,"1325 S Falcon St, Anaheim, CA 92804",0.008756058267056553,Anaheim,33.815277,-117.942927,2664.0,347.18468468468467,0.008698259119101234,21446.632477915948,21451.670605376534,21410.629462031575,21458.4283708566,21408.352488657485,21450.064809955704,21450.064809955704,21451.535341948966,19599.895872974314,21449.445948611417
