,Address,Housing Price,City,Longitude,Latitude,SQ Ft
0,"1246 Armacost Ave, Apt 303, Los Angeles, CA 90025",1050000,Los Angeles,34.045635,-118.463034,1690.0
1,"440 Wren Dr, Los Angeles, CA 90065",1099000,Los Angeles,34.103212,-118.20927,1355.0
2,"2047 W 95th St, Los Angeles, CA 90047",1249000,Los Angeles,33.950019,-118.315038,1815.0
3,"8816 S Fir Ave, Los Angeles, CA 90002",1250000,Los Angeles,33.956287,-118.236915,4348.0
4,"4051 W 4th St, Los Angeles, CA 90020",2450000,Los Angeles,34.067364,-118.304489,8259.0
5,"2170 Century Park E, Apt 1507, Los Angeles, CA 90067",999000,Los Angeles,34.057964,-118.410411,1053.0
6,"3171 Fairmount St, Los Angeles, CA 90063",1150000,Los Angeles,34.047486,-118.192781,1702.0
7,"747 S Ave, 60, Los Angeles, CA 90042",1448999,Los Angeles,34.104639,-118.17928,1843.0
8,"6253 Hollywood Blvd, Apt 705, Los Angeles, CA 90028",899000,Los Angeles,34.101954,-118.326369,1195.0
9,"1645 W 48th St, Los Angeles, CA 90062",2150000,Los Angeles,34.000249,-118.308573,10990.0
10,"5430 Smiley Dr, Los Angeles, CA 90016",2195000,Los Angeles,34.028863,-118.362698,4849.0
11,"1141 E Florence Ave, Unit 1141 1147, Los Angeles, CA 90001",5650000,Los Angeles,33.975098,-118.255086,10606.0
12,"2360 W 31st St, Los Angeles, CA 90018",1449000,Los Angeles,34.026236,-118.31982,2119.0
13,"8315 Blackburn Ave, Los Angeles, CA 90048",4299000,Los Angeles,34.072062,-118.370619,8720.0
14,"2025 Avenue, of the Stars Unit 207, Los Angeles, CA 90067",3188000,Los Angeles,34.057825,-118.415539,1555.0
15,"11023 Compton Ave, Los Angeles, CA 90059",539900,Los Angeles,33.935074,-118.246625,760.0
16,"2025 Avenue, of the Stars Unit 205, Los Angeles, CA 90067",2160000,Los Angeles,34.057825,-118.415539,1000.0
17,"118 W 118th St, Los Angeles, CA 90061",620000,Los Angeles,33.92621,-118.274712,1433.0
18,"812 N Genesee Ave, Los Angeles, CA 90046",1825000,Los Angeles,34.085795,-118.35812,2212.0
19,"10375 Wilshire Blvd, Apt 2A, Los Angeles, CA 90024",1995000,Los Angeles,34.067671,-118.428666,2555.0
20,"1229 N Wetherly Dr, Los Angeles, CA 90069",3995000,Los Angeles,34.092623,-118.388712,4154.0
21,"1639 E 90th St, Los Angeles, CA 90002",569999,Los Angeles,33.955502,-118.244606,1540.0
22,"825 N Croft Ave, Apt 103, Los Angeles, CA 90069",1649000,Los Angeles,34.08611,-118.374534,1782.0
23,"1823 Echo Park Ave, Los Angeles, CA 90026",759000,Los Angeles,34.085063,-118.253854,672.0
24,"1291 E 40th Pl, Los Angeles, CA 90011",775000,Los Angeles,34.010496,-118.252288,1742.0
25,"1027 W 46th St, Los Angeles, CA 90037",949000,Los Angeles,34.001925,-118.292605,2280.0
26,"1036 W 67th St, County, Los Angeles, CA 90044",475000,Los Angeles,33.97835,-118.293089,628.0
27,"1101 Cypress Ave, Los Angeles, CA 90065",799999,Los Angeles,34.094163,-118.225882,785.0
28,"354 E 90th St, Los Angeles, CA 90003",640000,Los Angeles,33.954431,-118.267591,1311.0
29,"233 W 88th Pl, Los Angeles, CA 90003",728888,Los Angeles,33.956667,-118.277123,1991.0
30,"1235 W 95th St, Los Angeles, CA 90044",1150000,Los Angeles,33.950051,-118.297324,3303.0
31,"1553 W 85th St, Los Angeles, CA 90047",750000,Los Angeles,33.961186,-118.304298,1795.0
32,"1585 W 46th St, Los Angeles, CA 90062",999000,Los Angeles,34.002157,-118.306398,2725.0
33,"6726 N Figueroa St, Los Angeles, CA 90042",1999000,Los Angeles,34.124399,-118.185338,3200.0
34,"1854 E 123rd St, Los Angeles, CA 90059",428500,Los Angeles,33.920628,-118.239518,705.0
35,"7607 8th Ave, Los Angeles, CA 90043",998000,Los Angeles,33.970637,-118.326736,1678.0
36,"6250 Hollywood Blvd, Unit 9A, Los Angeles, CA 90028",1325000,Los Angeles,34.10063,-118.325867,1900.0
37,"10732 Woodbine St, Apt 4, Los Angeles, CA 90034",699000,Los Angeles,34.025272,-118.413418,1097.0
38,"1625 7th Ave, Los Angeles, CA 90019",799000,Los Angeles,34.042839,-118.325081,960.0
39,"3613 Glendon Ave, Apt 304, Los Angeles, CA 90034",1299000,Los Angeles,34.021019,-118.411773,1685.0
40,"250 S Canyon View Dr, Los Angeles, CA 90049",7099000,Los Angeles,34.053579,-118.483805,4942.0
41,"7923 Airport Blvd, Los Angeles, CA 90045",1250000,Los Angeles,33.96617,-118.385917,1854.0
42,"444 E 76th St, Los Angeles, CA 90003",577500,Los Angeles,33.971174,-118.265741,1088.0
43,"1226 S Bedford St, Unit 201, Los Angeles, CA 90035",1325000,Los Angeles,34.054852,-118.380398,1568.0
44,"1226 S Bedford St, Unit 102, Los Angeles, CA 90035",975000,Los Angeles,34.054852,-118.380398,1194.0
45,"8401 Hillside Ave, Los Angeles, CA 90069",2450000,Los Angeles,34.099375,-118.37256,2300.0
46,"1226 S Bedford St, Unit 303, Los Angeles, CA 90035",1325000,Los Angeles,34.054852,-118.380398,1625.0
47,"1501 S Ardmore Ave, Los Angeles, CA 90006",1250000,Los Angeles,34.045279,-118.302854,4312.0
48,"15216 Antelo Pl, Los Angeles, CA 90077",11995000,Los Angeles,34.128711,-118.462036,9395.0
49,"10375 Wilshire Blvd, Apt 14E, Los Angeles, CA 90024",2049000,Los Angeles,34.067671,-118.428666,2323.0
50,"6563 Kansas Ave, Los Angeles, CA 90044",499000,Los Angeles,33.979448,-118.293896,652.0
51,"2930 Corda Ln, Los Angeles, CA 90049",3250000,Los Angeles,34.126502,-118.487808,3875.0
52,"1745 Camino Palmero St, Apt 406, Los Angeles, CA 90046",465000,Los Angeles,34.102951,-118.350526,718.0
53,"612 S Barrington Ave, Apt 211, Los Angeles, CA 90049",895000,Los Angeles,34.057359,-118.467645,1432.0
54,"6920 Woodrow Wilson Dr, Los Angeles, CA 90068",1899000,Los Angeles,34.124844,-118.345589,2907.0
55,"2667 Cimarron St, Los Angeles, CA 90018",940000,Los Angeles,34.031186,-118.315332,1768.0
56,"2312 Lorenzo Dr, Los Angeles, CA 90068",1925000,Los Angeles,34.112316,-118.332506,2684.0
57,"1041 W 78th St, Los Angeles, CA 90044",560000,Los Angeles,33.969665,-118.29329,1204.0
58,"3710 Raymond Ave, Los Angeles, CA 90007",869000,Los Angeles,34.020348,-118.297537,1236.0
59,"3825 Hammel St, Los Angeles, CA 90063",749000,Los Angeles,34.042624,-118.183812,1789.0
60,"2939 Leeward Ave, Apt 416, Los Angeles, CA 90005",819000,Los Angeles,34.05904,-118.287792,1256.0
61,"8909 Crocker St, Los Angeles, CA 90003",635000,Los Angeles,33.955242,-118.268475,968.0
62,"1150 S Augusta Ave, East, Los Angeles, CA 90023",680000,Los Angeles,34.019661,-118.17661,1008.0
63,"5847 S Wilton Pl, Los Angeles, CA 90047",789000,Los Angeles,33.987735,-118.315091,1880.0
64,"460 S Spring St, Apt 204, Los Angeles, CA 90013",408000,Los Angeles,34.047476,-118.248992,460.0
65,"1522 2nd Ave, Los Angeles, CA 90019",1650000,Los Angeles,34.044611,-118.318557,3452.0
66,"1528 2nd Ave, Los Angeles, CA 90019",1349999,Los Angeles,34.044474,-118.318557,4588.0
67,"641 N Hobart Blvd, Los Angeles, CA 90004",7750000,Los Angeles,34.082824,-118.306087,16035.0
68,"2927 8th Ave, Los Angeles, CA 90018",1299999,Los Angeles,34.028366,-118.326309,2200.0
69,"954 Dexter St, Los Angeles, CA 90042",1895000,Los Angeles,34.115624,-118.208307,2520.0
70,"317 W 76th St, Los Angeles, CA 90003",1000000,Los Angeles,33.971075,-118.279003,3820.0
71,"154 E 47th St, Los Angeles, CA 90011",1050000,Los Angeles,34.000799,-118.272747,2814.0
72,"200 W Slauson Ave, Los Angeles, CA 90003",1200000,Los Angeles,33.988929,-118.276295,3953.0
73,"626 W 78th St, Los Angeles, CA 90044",1350000,Los Angeles,33.968534,-118.285059,6158.0
74,"11645 Montana Ave, Apt 220, Los Angeles, CA 90049",789900,Los Angeles,34.056388,-118.465985,1247.0
75,"1975 Exposition Blvd, Los Angeles, CA 90018",749000,Los Angeles,34.018865,-118.31615,1308.0
76,"1348 E Vernon Ave, Los Angeles, CA 90011",2500000,Los Angeles,34.003622,-118.250955,5927.0
77,"3808 Franklin Ave, Los Angeles, CA 90027",2999999,Los Angeles,34.101489,-118.275969,3219.0
78,"657 W 66th St, Los Angeles, CA 90044",399000,Los Angeles,33.979579,-118.285207,560.0
79,"353 S Hoover St, Los Angeles, CA 90020",1999999,Los Angeles,34.067527,-118.284638,2875.0
80,"534 W 91st St, Los Angeles, CA 90044",719000,Los Angeles,33.953914,-118.283843,1608.0
81,"1329 E 100th St, Los Angeles, CA 90002",749999,Los Angeles,33.946244,-118.25033,1993.0
82,"1147 N Hudson Ave, Los Angeles, CA 90038",1399999,Los Angeles,34.091573,-118.332519,1044.0
83,"4225 Van Buren Pl, Los Angeles, CA 90037",925000,Los Angeles,34.006523,-118.297264,1645.0
84,"866 E 52nd St, Unit 866, Los Angeles, CA 90011",660000,Los Angeles,33.995575,-118.2604,1568.0
85,"1368 E 49th St, Los Angeles, CA 90011",569900,Los Angeles,33.998162,-118.250495,1702.0
86,"1875 W Adams Blvd, Los Angeles, CA 90018",3998800,Los Angeles,34.033014,-118.305419,9702.0
87,"7570 Shore Cliff Dr, Los Angeles, CA 90045",3099000,Los Angeles,33.964989,-118.430805,4105.0
88,"130 S Hewitt St, Apt 20, Los Angeles, CA 90012",889500,Los Angeles,34.047672,-118.235827,1260.0
89,"8640 Holmes Ave, Los Angeles, CA 90002",739000,Los Angeles,33.958669,-118.240556,2236.0
90,"10580 Wilshire Blvd, Apt 4S, Los Angeles, CA 90024",1313000,Los Angeles,34.061539,-118.43277,2560.0
91,"10501 Wilshire Blvd, Unit 2003, Los Angeles, CA 90024",1199000,Los Angeles,34.064156,-118.432778,1180.0
92,"41477 E 152nd St, Lake, Los Angeles, CA 93535",410000,Los Angeles,34.63581,-117.859137,1752.0
93,"10580 Sw Wilshire Blvd, Unit 12SW, Los Angeles, CA 90024",2798000,Los Angeles,34.061537,-118.432779,2757.0
94,"1568 Murray Cir, Los Angeles, CA 90026",1950000,Los Angeles,34.089162,-118.273135,3136.0
95,"3556 Multiview Dr, Los Angeles, CA 90068",4149000,Los Angeles,34.131814,-118.359692,5720.0
96,"2626 Raymond Ave, Los Angeles, CA 90007",1200000,Los Angeles,34.031872,-118.297749,5326.0
97,"820 S Wilton Pl, Unit 201, Los Angeles, CA 90005",898000,Los Angeles,34.057448,-118.31393,1473.0
98,"1232 Hyperion Ave, Los Angeles, CA 90029",1500000,Los Angeles,34.09458,-118.277595,1470.0
99,"312 W 5th St, Apt 907, Los Angeles, CA 90013",373000,Los Angeles,34.048033,-118.251248,860.0
100,"901 S Flower St, Unit 307, Los Angeles, CA 90015",1050000,Los Angeles,34.045533,-118.262425,1689.0
101,"2911 S Wellington Rd, Los Angeles, CA 90016",925000,Los Angeles,34.029034,-118.338711,1333.0
102,"8419 Truxton Ave, Los Angeles, CA 90045",1688888,Los Angeles,33.96196,-118.393769,1681.0
103,"1350 E 71st St, Los Angeles, CA 90001",850000,Los Angeles,33.975465,-118.250304,2200.0
104,"8693 Franklin Ave, Los Angeles, CA 90069",5495000,Los Angeles,34.098209,-118.378869,3200.0
105,"3903 W 59th Pl, Los Angeles, CA 90043",949900,Los Angeles,33.9865,-118.342135,1748.0
106,"159 W 94th St, Los Angeles, CA 90003",695000,Los Angeles,33.951272,-118.276149,2216.0
107,"2054 N Las Palmas Ave, Los Angeles, CA 90068",1997000,Los Angeles,34.107709,-118.336116,2603.0
108,"5040 Williams Pl, Los Angeles, CA 90032",535000,Los Angeles,34.067835,-118.174948,601.0
109,"4501 Maplewood Ave, Los Angeles, CA 90004",1295000,Los Angeles,34.080179,-118.302411,3192.0
110,"4300 Don Arellanes Dr, Los Angeles, CA 90008",1849000,Los Angeles,34.008385,-118.349042,2289.0
111,"255 S Coronado St, Los Angeles, CA 90057",988990,Los Angeles,34.066754,-118.277626,1414.0
112,"1568 Blue Jay Way, Los Angeles, CA 90069",15995000,Los Angeles,34.10163,-118.386304,7700.0
113,"5134 W 20th St, Los Angeles, CA 90016",1098000,Los Angeles,34.03968,-118.352313,1055.0
114,"3350 James M Wood Blvd, Apt 7, Los Angeles, CA 90006",1195000,Los Angeles,34.055675,-118.304949,2000.0
115,"458 N Alta Vista Blvd, Los Angeles, CA 90036",1699000,Los Angeles,34.079944,-118.347075,2480.0
116,"4321 Prospect Ave, Los Angeles, CA 90027",2649950,Los Angeles,34.102069,-118.28385,3619.0
117,"1476 E 108th St, Los Angeles, CA 90059",799999,Los Angeles,33.937539,-118.248291,1633.0
118,"4816 Glacier Dr, Los Angeles, CA 90041",925000,Los Angeles,34.133561,-118.191567,1104.0
119,"2366 Lyric Ave, Los Angeles, CA 90027",1545000,Los Angeles,34.103944,-118.274772,2363.0
120,"2057 N Catalina St, Los Angeles, CA 90027",2498888,Los Angeles,34.109211,-118.295394,2644.0
121,"40111 179th St E, Lake, Los Angeles, CA 93591",395000,Los Angeles,34.610452,-117.810892,1424.0
122,"2512 S Centinela Ave, Los Angeles, CA 90064",2950000,Los Angeles,34.02545,-118.450359,2209.0
123,"707 N Ave, 54, Los Angeles, CA 90042",1312000,Los Angeles,34.114605,-118.19941,1388.0
124,"5601 W Olympic Blvd, Unit 303, Los Angeles, CA 90036",859999,Los Angeles,34.057594,-118.351637,1140.0
125,"3412 E 3rd St, Los Angeles, CA 90063",1300000,Los Angeles,34.034454,-118.196096,3024.0
126,"1925 S Rimpau Blvd, Los Angeles, CA 90016",1599900,Los Angeles,34.039067,-118.343999,2880.0
127,"10615 Esther Ave, Los Angeles, CA 90064",2995000,Los Angeles,34.040079,-118.421089,2877.0
128,"7540 W 91st St, Los Angeles, CA 90045",1475000,Los Angeles,33.954936,-118.42826,1721.0
129,"1503 E 109th St, Los Angeles, CA 90059",649999,Los Angeles,33.937117,-118.248094,2389.0
130,"267 S San Pedro St, Unit 619, Los Angeles, CA 90012",589000,Los Angeles,34.048012,-118.242971,1477.0
131,"7100 Alvern St, Apt 201, Los Angeles, CA 90045",729000,Los Angeles,33.974505,-118.377587,1170.0
132,"1119 W 82nd St, Los Angeles, CA 90044",1222000,Los Angeles,33.9646,-118.294849,2968.0
133,"242 E 124th St, Los Angeles, CA 90061",575000,Los Angeles,33.919847,-118.270551,1193.0
134,"2661 S Harcourt Ave, Los Angeles, CA 90016",1130000,Los Angeles,34.031055,-118.34741,1820.0
135,"3928 Degnan Blvd, Los Angeles, CA 90008",1279000,Los Angeles,34.013681,-118.330232,1475.0
136,"4310 7th Ave, Los Angeles, CA 90008",1500000,Los Angeles,34.00522,-118.324517,2243.0
137,"2939 Leeward Ave, Apt 516, Los Angeles, CA 90005",880000,Los Angeles,34.058862,-118.287867,1260.0
138,"889 Francisco St, Unit 2402, Los Angeles, CA 90017",599000,Los Angeles,34.047687,-118.264684,730.0
139,"3600 Mandeville Canyon Rd, Los Angeles, CA 90049",4295000,Los Angeles,34.1146,-118.500537,4943.0
140,"4125 Mckinley Ave, Los Angeles, CA 90011",815000,Los Angeles,34.008433,-118.261454,1376.0
141,"6250 Hollywood Blvd, Unit 8C, Los Angeles, CA 90028",849995,Los Angeles,34.10063,-118.325867,1270.0
142,"133 S St Andrews Pl, Los Angeles, CA 90004",2999800,Los Angeles,34.072019,-118.311643,5980.0
143,"210 Belmont Ave, Los Angeles, CA 90026",1575000,Los Angeles,34.064795,-118.262739,3606.0
144,"146 S Gardner St, Los Angeles, CA 90036",1799000,Los Angeles,34.072151,-118.352902,1635.0
145,"949 Stone Canyon Rd, Los Angeles, CA 90077",4495000,Los Angeles,34.091193,-118.44762,3238.0
146,"219 S Ave, 60, Los Angeles, CA 90042",1299000,Los Angeles,34.110054,-118.187789,1677.0
147,"2320 S Bentley Ave, Apt 203, Los Angeles, CA 90064",649000,Los Angeles,34.038825,-118.435038,1044.0
148,"10110 Empyrean Way, Apt 204, Los Angeles, CA 90067",4250000,Los Angeles,34.053242,-118.40811,2370.0
149,"525 S La Fayette Park Pl, Unit 310, Los Angeles, CA 90057",545000,Los Angeles,34.064039,-118.283213,1046.0
150,"312 W 5th St, Apt M6, Los Angeles, CA 90013",449000,Los Angeles,34.048033,-118.251248,780.0
151,"625 E 79th St, Los Angeles, CA 90001",549000,Los Angeles,33.967701,-118.264104,1838.0
152,"212 E 62nd St, Los Angeles, CA 90003",579000,Los Angeles,33.983085,-118.271215,1996.0
153,"2030 N Commonwealth Ave, Los Angeles, CA 90027",1900000,Los Angeles,34.108631,-118.284916,2940.0
154,"5637 W Jefferson Blvd, Los Angeles, CA 90016",2295000,Los Angeles,34.02671,-118.369932,3788.0
155,"5130 Inadale Ave, Los Angeles, CA 90043",1499000,Los Angeles,33.995817,-118.350089,1821.0
156,"734 E 83rd St, Los Angeles, CA 90001",620000,Los Angeles,33.963514,-118.261716,1112.0
157,"4661 Wilshire Blvd, Unit 205, Los Angeles, CA 90010",1099000,Los Angeles,34.062237,-118.331017,1460.0
158,"1693 E 110th St, Los Angeles, CA 90059",510000,Los Angeles,33.93613,-118.242822,1482.0
159,"1416 Pandora Ave, Los Angeles, CA 90024",2750000,Los Angeles,34.061441,-118.426189,2146.0
160,"676 S Rampart Blvd, Los Angeles, CA 90057",5700000,Los Angeles,34.059783,-118.282716,17680.0
161,"5607 Virginia Ave, Los Angeles, CA 90038",4400000,Los Angeles,34.09208,-118.311252,11303.0
162,"138 E 78th St, Los Angeles, CA 90003",559000,Los Angeles,33.968505,-118.272458,1150.0
163,"840 W Imperial Hwy, Los Angeles, CA 90044",3750000,Los Angeles,33.930663,-118.290751,11172.0
164,"610 N Spaulding Ave, Los Angeles, CA 90036",2495000,Los Angeles,34.082231,-118.357065,3738.0
165,"2001 Roscomare Rd, Los Angeles, CA 90077",4999950,Los Angeles,34.106151,-118.464076,4684.0
166,"1335 S Sycamore Ave, Los Angeles, CA 90019",1559000,Los Angeles,34.048631,-118.348172,3044.0
167,"1107 W 110th St, Los Angeles, CA 90044",545000,Los Angeles,33.935745,-118.294538,726.0
168,"10316 Kimberly St, Los Angeles, CA 90002",650000,Los Angeles,33.942648,-118.240177,1455.0
169,"1425 N Detroit St, Apt 404, Los Angeles, CA 90046",899000,Los Angeles,34.096908,-118.34551,1420.0
170,"6250 Hollywood Blvd, Unit 5C, Los Angeles, CA 90028",725000,Los Angeles,34.10063,-118.325867,1270.0
171,"2067 W 67th St, Los Angeles, CA 90047",629000,Los Angeles,33.9787,-118.315562,863.0
172,"7403 S Harvard Blvd, Los Angeles, CA 90047",799000,Los Angeles,33.97262,-118.30711,1499.0
173,"40936 176th St E, Lake, Los Angeles, CA 93535",399900,Los Angeles,34.625854,-117.81644,1563.0
174,"5705 Monte Vista St, Los Angeles, CA 90042",1550000,Los Angeles,34.111922,-118.194222,3103.0
175,"1175 Carmona Ave, Los Angeles, CA 90019",1200000,Los Angeles,34.053781,-118.355927,1097.0
176,"529 W 74th St, Los Angeles, CA 90044",875000,Los Angeles,33.972964,-118.283728,3461.0
177,"2215 Wellesley Ave, Los Angeles, CA 90064",2999999,Los Angeles,34.030495,-118.454849,2107.0
178,"1575 W 50th St, Los Angeles, CA 90062",640000,Los Angeles,33.998503,-118.305985,1918.0
179,"1806 Mozart St, Los Angeles, CA 90031",728888,Los Angeles,34.068128,-118.21992,1387.0
180,"1640 E 49th St, Los Angeles, CA 90011",875000,Los Angeles,33.998343,-118.244681,3068.0
181,"8278 Sweetzer Ct, Los Angeles, CA 90048",2149000,Los Angeles,34.080555,-118.369851,2069.0
182,"1326 S Woods Ave, East, Los Angeles, CA 90022",888000,Los Angeles,34.013453,-118.160106,1693.0
183,"12318 19th Helena Dr, Los Angeles, CA 90049",8800000,Los Angeles,34.058679,-118.480072,7401.0
184,"1135 Rexford Dr, Apt 404, Los Angeles, CA 90035",1075000,Los Angeles,34.055981,-118.394155,1408.0
185,"130 N Westmoreland Ave, Los Angeles, CA 90004",5360000,Los Angeles,34.074497,-118.287567,18013.0
186,"345 N Detroit St, Los Angeles, CA 90036",2500000,Los Angeles,34.077537,-118.345456,4230.0
187,"1226 S Bedford St, Unit 502, Los Angeles, CA 90035",1550000,Los Angeles,34.054852,-118.380398,1595.0
188,"8414 Kirkwood Dr, Los Angeles, CA 90046",1199000,Los Angeles,34.103519,-118.373772,1204.0
189,"1952 Fox Hills Dr, Los Angeles, CA 90025",2495000,Los Angeles,34.056144,-118.41924,5226.0
190,"512 N Gower St, Los Angeles, CA 90004",2599000,Los Angeles,34.079379,-118.322412,2000.0
191,"877 Francisco St, Apt 605, Los Angeles, CA 90017",510000,Los Angeles,34.04839,-118.26387,518.0
192,"2741 S Rimpau Blvd, Los Angeles, CA 90016",1299000,Los Angeles,34.030017,-118.349452,3578.0
193,"10795 Wilshire Blvd, Apt 405, Los Angeles, CA 90024",1588000,Los Angeles,34.06033,-118.439587,2001.0
194,"4519 Lexington Ave, Los Angeles, CA 90029",850000,Los Angeles,34.093682,-118.287286,972.0
195,"5338 S Chariton Ave, Los Angeles, CA 90056",2300000,Los Angeles,33.993279,-118.369252,3044.0
196,"2629 S Victoria Ave, Los Angeles, CA 90016",1865000,Los Angeles,34.03164,-118.336511,4837.0
197,"1025 W 54th St, Los Angeles, CA 90037",1095000,Los Angeles,33.993474,-118.292519,1600.0
198,"1830 Westholme Ave, Apt 302, Los Angeles, CA 90025",1075000,Los Angeles,34.053688,-118.427549,1477.0
199,"2166 Vine St N, County, Los Angeles, CA 90068",1995000,Los Angeles,34.110197,-118.326496,2128.0
200,"315 E 8th St, Apt 401, Los Angeles, CA 90014",849995,Los Angeles,34.041155,-118.251098,1370.0
201,"222 S Gramercy Pl, Los Angeles, CA 90004",3850000,Los Angeles,34.070404,-118.312474,4705.0
202,"5025 Maplewood Ave, Apt 10, Los Angeles, CA 90004",699000,Los Angeles,34.080597,-118.31209,1311.0
203,"1110 N Ardmore Ave, Los Angeles, CA 90029",927000,Los Angeles,34.091266,-118.301026,996.0
204,"3409 Oak Glen Dr, Los Angeles, CA 90068",2745000,Los Angeles,34.130875,-118.353315,2168.0
205,"840 W 74th St, Los Angeles, CA 90044",539000,Los Angeles,33.972395,-118.28853,1155.0
206,"663 W 68th St, Los Angeles, CA 90044",455000,Los Angeles,33.978427,-118.285208,648.0
207,"7716 Crenshaw Blvd, Los Angeles, CA 90043",365000,Los Angeles,33.969342,-118.330297,671.0
208,"1036 S Serrano Ave, Unit 101, Los Angeles, CA 90006",785000,Los Angeles,34.051429,-118.305994,1430.0
209,"3729 Delmas Ter, Los Angeles, CA 90034",5950000,Los Angeles,34.025256,-118.399308,6930.0
210,"8727 S Harvard Blvd, Los Angeles, CA 90047",775000,Los Angeles,33.958101,-118.307139,1157.0
211,"4200 Via, Arbolada Unit 314, Los Angeles, CA 90042",711000,Los Angeles,34.096781,-118.185542,1078.0
212,"3250 Selby Ave, Los Angeles, CA 90034",2200000,Los Angeles,34.028655,-118.416256,2794.0
213,"5726 Holmes Ave, Los Angeles, CA 90058",675000,Los Angeles,33.990446,-118.240788,1526.0
214,"698 Moulton Ave, Los Angeles, CA 90031",7000000,Los Angeles,34.063321,-118.219921,9180.0
215,"2008 Whitley Ave, Los Angeles, CA 90068",2475000,Los Angeles,34.107419,-118.332654,3981.0
216,"3414 8th Ave, Los Angeles, CA 90018",875000,Los Angeles,34.025057,-118.325622,1638.0
217,"8620 Olin St, Unit 4, Los Angeles, CA 90034",1400000,Los Angeles,34.034358,-118.380871,2144.0
218,"3723 Carlota Blvd, Los Angeles, CA 90031",775000,Los Angeles,34.088685,-118.209366,1496.0
219,"116 S Croft Ave, Apt 401, Los Angeles, CA 90048",899000,Los Angeles,34.073975,-118.373853,1595.0
220,"5176 Wadena St, Los Angeles, CA 90032",729000,Los Angeles,34.092446,-118.168127,828.0
221,"1829 Courtney Ave, Los Angeles, CA 90046",3495000,Los Angeles,34.103603,-118.358468,2751.0
222,"1281 West Blvd, Los Angeles, CA 90019",1225000,Los Angeles,34.049204,-118.333815,2024.0
223,"300 Stone Canyon Rd, Los Angeles, CA 90077",59000000,Los Angeles,34.080532,-118.441951,17600.0
224,"7512 Flight Ave, Los Angeles, CA 90045",999000,Los Angeles,33.970266,-118.380626,1500.0
225,"3711 Barry Ave, Los Angeles, CA 90066",2995000,Los Angeles,34.009598,-118.427288,3030.0
226,"541 Glenrock Ave, Los Angeles, CA 90024",12500000,Los Angeles,34.066913,-118.451357,16000.0
227,"4522 Jessica Dr, Los Angeles, CA 90065",825000,Los Angeles,34.111527,-118.220309,798.0
228,"8330 S Figueroa St, Los Angeles, CA 90003",1325000,Los Angeles,33.963373,-118.282328,4556.0
229,"3871 Cimarron St, Los Angeles, CA 90062",799000,Los Angeles,34.015327,-118.31636,1136.0
230,"969 Hilgard Ave, Apt 403, Los Angeles, CA 90024",649000,Los Angeles,34.06222,-118.441903,728.0
231,"13809 S San Pedro St, Los Angeles, CA 90061",675999,Los Angeles,33.906376,-118.269954,2022.0
232,"1942 Lake Shore Ave, Los Angeles, CA 90039",3195000,Los Angeles,34.088822,-118.254673,2559.0
233,"5121 11th Ave, Los Angeles, CA 90043",750000,Los Angeles,33.996085,-118.329737,1654.0
234,"10445 Wilshire Blvd, Apt 406, Los Angeles, CA 90024",1350000,Los Angeles,34.066,-118.43111,1722.0
235,"2847 Buckingham Rd, Los Angeles, CA 90016",1395000,Los Angeles,34.029727,-118.34085,2466.0
236,"1742 W 82nd St, Los Angeles, CA 90047",1098777,Los Angeles,33.964309,-118.308321,2229.0
237,"5511 York Blvd, Los Angeles, CA 90042",1700000,Los Angeles,34.119914,-118.197679,1637.0
238,"2639 Military Ave, Los Angeles, CA 90064",1995000,Los Angeles,34.033226,-118.429504,2117.0
239,"5842 S Hoover St, Los Angeles, CA 90044",3450000,Los Angeles,33.988351,-118.286675,6644.0
240,"246 E 111th St, Los Angeles, CA 90061",599900,Los Angeles,33.934549,-118.269943,1036.0
241,"10490 Wilshire Blvd, Apt 2103, Los Angeles, CA 90024",2400000,Los Angeles,34.064602,-118.431173,2776.0
242,"4321 Los Feliz Blvd, Unit 6, Los Angeles, CA 90027",875000,Los Angeles,34.112732,-118.284863,1350.0
243,"3168 Wabash Ave, Los Angeles, CA 90063",5300000,Los Angeles,34.047838,-118.19271,11600.0
244,"424 N Crescent Heights Blvd, Los Angeles, CA 90048",2495000,Los Angeles,34.07889,-118.365527,2980.0
245,"2331 Cabot St, Los Angeles, CA 90031",874000,Los Angeles,34.092804,-118.240147,1056.0
246,"2160 Century Park, Unit 202N, Los Angeles, CA 90067",850000,Los Angeles,34.057964,-118.410411,1070.0
247,"2426 Cazaux Pl, Los Angeles, CA 90068",2085000,Los Angeles,34.115447,-118.314407,3314.0
248,"2160 Century Park, Unit 204N, Los Angeles, CA 90067",750000,Los Angeles,34.057964,-118.410411,853.0
249,"10206 Stanford Ave, Los Angeles, CA 90002",649999,Los Angeles,33.943694,-118.262259,972.0
250,"877 Francisco St, Apt 1602, Los Angeles, CA 90017",860000,Los Angeles,34.04839,-118.26387,822.0
251,"3433 Arlington Ave, Los Angeles, CA 90018",1199999,Los Angeles,34.024553,-118.317999,2205.0
252,"7807 S Hobart Blvd, Los Angeles, CA 90047",705000,Los Angeles,33.96882,-118.308185,907.0
253,"475 N Concord St, Los Angeles, CA 90063",990000,Los Angeles,34.043046,-118.193787,2365.0
254,"1251 W 99th St, Los Angeles, CA 90044",950000,Los Angeles,33.946191,-118.297758,1688.0
255,"877 Francisco St, Apt 2903, Los Angeles, CA 90017",750000,Los Angeles,34.04839,-118.26387,693.0
256,"1830 N Stanley Ave, Los Angeles, CA 90046",6995000,Los Angeles,34.104381,-118.356802,5290.0
257,"5446 Dahlia Dr, Los Angeles, CA 90041",1798000,Los Angeles,34.146201,-118.198002,2243.0
258,"324 W 51st St, Los Angeles, CA 90037",2499000,Los Angeles,33.996256,-118.27935,5198.0
259,"4428 W 62nd St, Los Angeles, CA 90043",975000,Los Angeles,33.983242,-118.352271,1596.0
260,"3617 W 61st St, Los Angeles, CA 90043",889000,Los Angeles,33.984732,-118.335926,1793.0
261,"2167 Broadview Ter, Los Angeles, CA 90068",1375000,Los Angeles,34.109812,-118.339649,1497.0
262,"3658 Military Ave, Los Angeles, CA 90034",2195000,Los Angeles,34.017419,-118.415763,2432.0
263,"9304 Firth Blvd, Los Angeles, CA 90002",799950,Los Angeles,33.952032,-118.247108,1816.0
264,"2515 E 109th St, Los Angeles, CA 90059",598000,Los Angeles,33.936421,-118.227553,1377.0
265,"6441 W 82nd St, Los Angeles, CA 90045",1200000,Los Angeles,33.964872,-118.400645,988.0
266,"1580 Stone Canyon Rd, Los Angeles, CA 90077",15900000,Los Angeles,34.103008,-118.454258,9391.0
267,"657 E 90th St, Los Angeles, CA 90002",839000,Los Angeles,33.954964,-118.263254,2100.0
268,"7877 Flight Pl, Los Angeles, CA 90045",2298000,Los Angeles,33.966911,-118.386619,2226.0
269,"3734 S Canfield Ave, Apt 225, Los Angeles, CA 90034",378000,Los Angeles,34.0276,-118.395044,454.0
270,"2728 Colby Ave, Los Angeles, CA 90064",1599987,Los Angeles,34.026966,-118.436385,1808.0
271,"3729 Westside Ave, Los Angeles, CA 90018",900000,Los Angeles,34.018705,-118.327483,1456.0
272,"4546 S Centinela Ave, Los Angeles, CA 90066",3750000,Los Angeles,33.992248,-118.422041,2457.0
273,"3225 Baldwin St, Los Angeles, CA 90031",999000,Los Angeles,34.07041,-118.206712,3156.0
274,"1901 S Marvin Ave, Los Angeles, CA 90016",1295000,Los Angeles,34.040005,-118.362487,1962.0
275,"2224 Crenshaw Blvd, Los Angeles, CA 90016",1250000,Los Angeles,34.037487,-118.331908,2700.0
276,"2436 Wabash Ave, Los Angeles, CA 90033",1049000,Los Angeles,34.05219,-118.20279,2443.0
277,"633 Woodruff Ave, Los Angeles, CA 90024",6999000,Los Angeles,34.070758,-118.432672,4033.0
278,"524 N Kenmore Ave, Los Angeles, CA 90004",1400000,Los Angeles,34.079905,-118.296207,5152.0
279,"8116 Rayford Dr, Los Angeles, CA 90045",1595000,Los Angeles,33.962754,-118.42379,1887.0
280,"1649 S St Andrews Pl, Los Angeles, CA 90019",2860000,Los Angeles,34.042084,-118.311999,8416.0
281,"2005 Talmadge St, Los Angeles, CA 90027",6450000,Los Angeles,34.107971,-118.28332,10826.0
282,"1835 S Barrington Ave, Ph 1, Los Angeles, CA 90025",1449000,Los Angeles,34.038933,-118.452337,1996.0
283,"889 Francisco St, Unit 907, Los Angeles, CA 90017",599000,Los Angeles,34.047687,-118.264684,480.0
284,"889 Francisco St, Unit 2210, Los Angeles, CA 90017",789000,Los Angeles,34.047687,-118.264684,750.0
285,"1329 2nd Ave, Los Angeles, CA 90019",1515000,Los Angeles,34.046285,-118.319257,5824.0
286,"969 W Vernon Ave, Los Angeles, CA 90037",940000,Los Angeles,34.00395,-118.290733,4064.0
287,"1914 Heidleman Rd, Los Angeles, CA 90032",730000,Los Angeles,34.064547,-118.174667,704.0
288,"11575 Missouri Ave, Apt 6, Los Angeles, CA 90025",888800,Los Angeles,34.04001,-118.449526,1340.0
289,"2130 Cyril Ave, Los Angeles, CA 90032",690888,Los Angeles,34.068173,-118.182919,960.0
290,"4534 Kingswell Ave, Unit 36, Los Angeles, CA 90027",1900000,Los Angeles,34.102428,-118.288745,4754.0
291,"2020 E 88th St, Los Angeles, CA 90002",499000,Los Angeles,33.956707,-118.235329,1218.0
292,"112 E Ave, 38, Los Angeles, CA 90031",2000000,Los Angeles,34.089658,-118.210791,2577.0
293,"900 W Olympic Blvd, Unit 30C, Los Angeles, CA 90015",1225000,Los Angeles,34.044677,-118.266177,1270.0
294,"1521 N Doheny Dr, Los Angeles, CA 90069",5950000,Los Angeles,34.099452,-118.389631,2742.0
295,"2860 Roscomare Rd, Los Angeles, CA 90077",1995000,Los Angeles,34.126897,-118.466669,2906.0
296,"1809 N Beverly Glen Blvd, Los Angeles, CA 90077",1350000,Los Angeles,34.10365,-118.446387,1216.0
297,"2146 Malcolm Ave, Los Angeles, CA 90025",1899000,Los Angeles,34.045367,-118.429897,1599.0
298,"3817 Broadlawn Dr, Los Angeles, CA 90068",2049000,Los Angeles,34.131657,-118.357812,2182.0
299,"6108 Alcott St, Los Angeles, CA 90035",2400000,Los Angeles,34.051812,-118.374439,5210.0
300,"3523 4th Ave, Los Angeles, CA 90018",825000,Los Angeles,34.023418,-118.321574,988.0
301,"2261 Hollyridge Dr, Los Angeles, CA 90068",1850000,Los Angeles,34.10888,-118.320308,2139.0
302,"2003 Canyon Dr, Los Angeles, CA 90068",2249000,Los Angeles,34.107528,-118.317239,2592.0
303,"3842 E 5th St, East, Los Angeles, CA 90063",619999,Los Angeles,34.029771,-118.186201,1044.0
304,"6371 Orange St, Los Angeles, CA 90048",1875000,Los Angeles,34.064973,-118.367542,3052.0
305,"4600 Don Zarembo Dr, Los Angeles, CA 90008",1879000,Los Angeles,34.004809,-118.355528,2076.0
306,"12536 Barbara Ave, Los Angeles, CA 90066",2560000,Los Angeles,33.999982,-118.434342,2229.0
307,"1523 S Victoria Ave, Los Angeles, CA 90019",1295000,Los Angeles,34.045363,-118.329903,2314.0
308,"1907 Talmadge St, Los Angeles, CA 90027",2850000,Los Angeles,34.105739,-118.28337,3766.0
309,"10776 Wilshire Blvd, Unit 1403, Los Angeles, CA 90024",2790000,Los Angeles,34.059702,-118.438688,2735.0
310,"2443 Sichel St, Los Angeles, CA 90031",1055000,Los Angeles,34.074958,-118.21347,3098.0
311,"1031 W Century Blvd, Los Angeles, CA 90044",699000,Los Angeles,33.945698,-118.293025,1760.0
312,"9314 Sierra Mar Dr, Los Angeles, CA 90069",3395000,Los Angeles,34.095518,-118.394332,3929.0
313,"10450 Wilshire Blvd, Unit 8D, Los Angeles, CA 90024",719000,Los Angeles,34.065258,-118.430496,1053.0
314,"1764 Viewmont Dr, Los Angeles, CA 90069",7490000,Los Angeles,34.102777,-118.38043,5000.0
315,"3454 Hunter St, Los Angeles, CA 90023",700000,Los Angeles,34.019359,-118.203894,1700.0
316,"10501 Wilshire Blvd, Unit 1406, Los Angeles, CA 90024",729000,Los Angeles,34.064156,-118.432778,598.0
317,"1645 Camden Ave, Apt 101, Los Angeles, CA 90025",995000,Los Angeles,34.048899,-118.443197,1265.0
318,"824 W 112th St, Los Angeles, CA 90044",560000,Los Angeles,33.933187,-118.289507,767.0
319,"10346 Keswick Ave, Los Angeles, CA 90064",3899000,Los Angeles,34.050196,-118.417295,4016.0
320,"615 E 113th St, Los Angeles, CA 90059",609900,Los Angeles,33.93215,-118.264593,1610.0
321,"3538 Greenwood Ave, Los Angeles, CA 90066",3197000,Los Angeles,34.005088,-118.446128,2700.0
322,"11745 Culver Blvd, Los Angeles, CA 90066",1750000,Los Angeles,33.997937,-118.416071,3557.0
323,"1890 S Cochran Ave, Apt 6, Los Angeles, CA 90019",649000,Los Angeles,34.041698,-118.354275,1066.0
324,"9337 National Blvd, Los Angeles, CA 90034",4150000,Los Angeles,34.031632,-118.395418,6344.0
325,"2034 Fairburn Ave, Los Angeles, CA 90025",2395000,Los Angeles,34.050849,-118.425944,1990.0
326,"10508 Wilkins Ave, Los Angeles, CA 90024",2098000,Los Angeles,34.058608,-118.428868,2180.0
327,"880 W 1st St, Apt 611, Los Angeles, CA 90012",698000,Los Angeles,34.056721,-118.25213,1324.0
328,"3095 Hollyridge Dr, Los Angeles, CA 90068",1800000,Los Angeles,34.125154,-118.317544,1502.0
329,"10727 Wilshire Blvd, Apt 1704, Los Angeles, CA 90024",4500000,Los Angeles,34.060931,-118.437266,2989.0
330,"7517 Naylor Ave, Los Angeles, CA 90045",1649000,Los Angeles,33.972695,-118.394203,1891.0
331,"900 W Olympic Blvd, Unit 34D, Los Angeles, CA 90015",1790000,Los Angeles,34.044677,-118.266177,1790.0
332,"1834 N Echo Park Ave, Los Angeles, CA 90026",5395000,Los Angeles,34.084891,-118.252934,7188.0
333,"12608 Gilmore Ave, Los Angeles, CA 90066",1690000,Los Angeles,33.98977,-118.427282,1966.0
334,"317 S Holt Ave Ph G, Los Angeles, CA 90048",949000,Los Angeles,34.073009,-118.378787,1615.0
335,"7911 Hillside Ave, Los Angeles, CA 90046",2250000,Los Angeles,34.102303,-118.362026,2300.0
336,"1106 W Mauretania St, Los Angeles, CA 90744",475000,Los Angeles,33.789255,-118.276614,1008.0
337,"257 S Spring St, Unit Pentc, Los Angeles, CA 90012",969000,Los Angeles,34.050732,-118.247178,1387.0
338,"4520 Willow Brook Ave, Los Angeles, CA 90029",2600000,Los Angeles,34.089472,-118.290098,7556.0
339,"2350 Hollyridge Dr, Los Angeles, CA 90068",2495000,Los Angeles,34.110895,-118.318201,3400.0
340,"1155 S Grand Ave, Apt 805, Los Angeles, CA 90015",624900,Los Angeles,34.040804,-118.263194,1050.0
341,"5715 W 76th St, Los Angeles, CA 90045",1495000,Los Angeles,33.970022,-118.381651,1874.0
342,"8032 Westlawn Ave, Los Angeles, CA 90045",1750000,Los Angeles,33.966238,-118.408221,1780.0
343,"672 Macculloch Dr, Los Angeles, CA 90049",6595000,Los Angeles,34.073514,-118.47414,2677.0
344,"1735 E 64th St, Los Angeles, CA 90001",450000,Los Angeles,33.981435,-118.242149,704.0
345,"10501 Wilshire Blvd, Unit 1005, Los Angeles, CA 90024",659000,Los Angeles,34.064156,-118.432778,517.0
346,"531 Coleman Ave, Los Angeles, CA 90042",999998,Los Angeles,34.102976,-118.184711,1130.0
347,"1801 Westridge Rd, Los Angeles, CA 90049",17500000,Los Angeles,34.066862,-118.495865,7942.0
348,"1818 Pelham Ave, Apt 101, Los Angeles, CA 90025",990000,Los Angeles,34.051492,-118.431151,1648.0
349,"2203 S Palm Grove Ave, Los Angeles, CA 90016",1195000,Los Angeles,34.03592,-118.343492,1386.0
350,"1915 Malcolm Ave, Apt 301, Los Angeles, CA 90025",950000,Los Angeles,34.048627,-118.4335,1511.0
351,"2536 Sw Cotner Ave, Los Angeles, CA 90064",1300000,Los Angeles,34.033985,-118.434109,1723.0
352,"2206 Greenfield Ave, Los Angeles, CA 90064",3495000,Los Angeles,34.041614,-118.434791,2971.0
353,"4440 Victoria Park Dr, Los Angeles, CA 90019",2399000,Los Angeles,34.046797,-118.332261,6480.0
354,"12000 Goshen Ave, Apt 306, Los Angeles, CA 90049",1149000,Los Angeles,34.046347,-118.466079,1463.0
355,"6268 S La Brea Ave, Los Angeles, CA 90056",1375000,Los Angeles,33.982303,-118.358247,3480.0
356,"1925 S Beverly Glen Blvd, Unit 28, Los Angeles, CA 90025",1299000,Los Angeles,34.054423,-118.423561,1750.0
357,"7316 Caverna Dr, Los Angeles, CA 90068",2998000,Los Angeles,34.121416,-118.352476,1582.0
358,"300 S Reno St, Apt 202, Los Angeles, CA 90057",649999,Los Angeles,34.067879,-118.283152,1498.0
359,"1469 1 2 E 109th St, Los Angeles, CA 90059",899900,Los Angeles,33.937114,-118.248667,3771.0
360,"3743 Pueblo Ave, Los Angeles, CA 90032",799000,Los Angeles,34.088775,-118.175959,2910.0
361,"2009 Raymond Ave, Los Angeles, CA 90007",1099000,Los Angeles,34.037859,-118.297686,4214.0
362,"5346 Oakland St, Los Angeles, CA 90032",799999,Los Angeles,34.088761,-118.165347,1347.0
363,"12910 Walsh Ave, Apt 4, Los Angeles, CA 90066",575000,Los Angeles,33.986561,-118.430201,705.0
364,"1169 E 34th St, Los Angeles, CA 90011",775000,Los Angeles,34.013028,-118.25481,3208.0
365,"1611 W 48th St, Los Angeles, CA 90062",750000,Los Angeles,34.00036,-118.307223,1730.0
366,"4007 Exposition Blvd, Los Angeles, CA 90016",1200000,Los Angeles,34.02365,-118.339781,952.0
367,"4011 Exposition Blvd, Los Angeles, CA 90016",1200000,Los Angeles,34.023669,-118.339918,1400.0
368,"1459 Stebbins Ter, Los Angeles, CA 90069",14995000,Los Angeles,34.096401,-118.382254,9124.0
369,"728 N Sweetzer Ave, Apt 112, Los Angeles, CA 90069",899000,Los Angeles,34.084586,-118.370127,862.0
370,"16107 Jubilee Trail Ave, Lake, Los Angeles, CA 93591",409600,Los Angeles,34.594077,-117.842986,1712.0
371,"4460 Wilshire Blvd, Apt 501, Los Angeles, CA 90010",1550000,Los Angeles,34.061524,-118.326241,1967.0
372,"725 N Croft Ave, Unit 106, Los Angeles, CA 90069",2299000,Los Angeles,34.084334,-118.374466,2290.0
373,"725 N Croft Ave, Unit 203, Los Angeles, CA 90069",2295000,Los Angeles,34.084334,-118.374466,1941.0
374,"725 N Croft Ave, Unit 304, Los Angeles, CA 90069",1900000,Los Angeles,34.084334,-118.374466,1744.0
375,"725 N Croft Ave, Unit 309, Los Angeles, CA 90069",2895000,Los Angeles,34.084334,-118.374466,2259.0
376,"516 N Bronson Ave, Los Angeles, CA 90004",1850000,Los Angeles,34.079403,-118.317621,1912.0
377,"6562 Firebrand St, Los Angeles, CA 90045",3275000,Los Angeles,33.97457,-118.405856,3300.0
378,"1352 E 58th Pl, Los Angeles, CA 90001",475000,Los Angeles,33.988378,-118.250355,746.0
379,"1039 W 122nd St, Los Angeles, CA 90044",725000,Los Angeles,33.922374,-118.293164,1739.0
380,"2153 Basil Ln, Los Angeles, CA 90077",1375000,Los Angeles,34.108765,-118.444296,1288.0
381,"4258 Chase Ave, Los Angeles, CA 90066",1489000,Los Angeles,33.992716,-118.429189,1633.0
382,"1413 Portia St, Los Angeles, CA 90026",1399000,Los Angeles,34.077593,-118.253364,1616.0
383,"1363 E 59th St, Los Angeles, CA 90001",833000,Los Angeles,33.987274,-118.249882,2192.0
384,"1212 S Tremaine Ave, Los Angeles, CA 90019",1888000,Los Angeles,34.05265,-118.338837,3309.0
385,"4245 S Raymond Ave, Los Angeles, CA 90037",720000,Los Angeles,34.006026,-118.298335,1218.0
386,"10718 Queensland St, Los Angeles, CA 90034",1400000,Los Angeles,34.030128,-118.41667,1825.0
387,"1213 E 60th St, Los Angeles, CA 90001",785000,Los Angeles,33.985484,-118.253502,2464.0
388,"939 S Broadway, Apt 1010, Los Angeles, CA 90015",624000,Los Angeles,34.041597,-118.25724,740.0
389,"547 N St Louis St, East, Los Angeles, CA 90033",850000,Los Angeles,34.049834,-118.210948,2194.0
390,"1312 N Mariposa Ave, Los Angeles, CA 90027",1298000,Los Angeles,34.095697,-118.299089,1934.0
391,"823 E 75th St, Los Angeles, CA 90001",899000,Los Angeles,33.972346,-118.259949,2000.0
392,"817 N Alfred St, Apt 304, Los Angeles, CA 90069",1250000,Los Angeles,34.085955,-118.375598,1430.0
393,"6312 Mirror Lake Dr, Los Angeles, CA 90068",7499000,Los Angeles,34.124553,-118.328111,7005.0
394,"1581 Curran St, Los Angeles, CA 90026",900000,Los Angeles,34.093565,-118.247666,1100.0
395,"1143 S Alfred St, Los Angeles, CA 90035",2295000,Los Angeles,34.055658,-118.375298,2142.0
396,"3635 8th Ave, Los Angeles, CA 90018",775000,Los Angeles,34.021879,-118.326289,1860.0
397,"3967 East Blvd, Los Angeles, CA 90066",4749000,Los Angeles,34.004439,-118.423422,4178.0
398,"2090 Sunrise Hill Dr, Los Angeles, CA 90049",4900000,Los Angeles,34.104155,-118.485085,5548.0
399,"1351 N Orange Dr, Apt 117, Los Angeles, CA 90028",415000,Los Angeles,34.095865,-118.341932,589.0
400,"5601 Coliseum St, Los Angeles, CA 90016",1200000,Los Angeles,34.018661,-118.367433,1815.0
401,"647 N Irving Blvd, Los Angeles, CA 90004",1625000,Los Angeles,34.083014,-118.318987,3828.0
402,"238 N Norton Ave, Los Angeles, CA 90004",3499000,Los Angeles,34.075728,-118.316784,2589.0
403,"1440 Veteran Ave, Apt 322, Los Angeles, CA 90024",549000,Los Angeles,34.053341,-118.44327,538.0
404,"1492 Blue Jay Way, Los Angeles, CA 90069",5250000,Los Angeles,34.099497,-118.386419,2413.0
405,"10547 Ayres Ave, Los Angeles, CA 90064",2000000,Los Angeles,34.043537,-118.420471,2275.0
406,"4608 Finley Ave, Apt 5, Los Angeles, CA 90027",599000,Los Angeles,34.107411,-118.290695,772.0
407,"1100 S Hope St, Apt 1405, Los Angeles, CA 90015",550000,Los Angeles,34.041684,-118.263076,880.0
408,"7469 Mulholland Dr, Los Angeles, CA 90046",1603000,Los Angeles,34.123268,-118.358082,1157.0
409,"3230 N Knoll Dr, Los Angeles, CA 90068",2499000,Los Angeles,34.126605,-118.342543,2792.0
410,"1328 W 53rd St, Los Angeles, CA 90037",998000,Los Angeles,33.993879,-118.29907,2207.0
411,"836 S Kingsley Dr, Los Angeles, CA 90005",1750000,Los Angeles,34.056722,-118.302746,5728.0
412,"5159 Clinton St, Los Angeles, CA 90004",925000,Los Angeles,34.081831,-118.31556,1004.0
413,"6065 Pickford St, Los Angeles, CA 90035",1725000,Los Angeles,34.048851,-118.373802,2737.0
414,"5426 W Washington Blvd, Los Angeles, CA 90016",1795000,Los Angeles,34.038379,-118.36113,1950.0
415,"1207 N Commonwealth Ave, Los Angeles, CA 90029",995000,Los Angeles,34.093748,-118.285861,1558.0
416,"1750 S Marvin Ave, Los Angeles, CA 90019",995000,Los Angeles,34.042038,-118.361315,1558.0
417,"3386 Floyd Ter, Los Angeles, CA 90068",929000,Los Angeles,34.133376,-118.344553,1062.0
418,"1422 W 95th St, Los Angeles, CA 90047",499000,Los Angeles,33.949292,-118.301279,920.0
419,"1133 S Hoover St, Apt 313, Los Angeles, CA 90006",699000,Los Angeles,34.050427,-118.284537,1630.0
420,"430 W 80th St, Los Angeles, CA 90003",1199000,Los Angeles,33.96663,-118.281527,3505.0
421,"162 Acari Dr, Los Angeles, CA 90049",5495000,Los Angeles,34.069658,-118.467105,3649.0
422,"2108 S Marvin Ave, Los Angeles, CA 90016",1100000,Los Angeles,34.038332,-118.362871,1588.0
423,"2104 S Marvin Ave, Los Angeles, CA 90016",800000,Los Angeles,34.038422,-118.362766,728.0
424,"10310 S Harvard Blvd, Los Angeles, CA 90047",849999,Los Angeles,33.94277,-118.306483,1708.0
425,"1407 12th Ave, Los Angeles, CA 90019",1190000,Los Angeles,34.046245,-118.325563,2687.0
426,"2635 Adelbert Ave, Los Angeles, CA 90039",2695000,Los Angeles,34.104438,-118.255573,3214.0
427,"1735 N Fuller Ave, Apt 245, Los Angeles, CA 90046",525000,Los Angeles,34.102806,-118.349428,831.0
428,"201 S Westlake Ave, Los Angeles, CA 90057",1494900,Los Angeles,34.064881,-118.269893,6766.0
429,"1005 San Pascual Ave, Los Angeles, CA 90042",888500,Los Angeles,34.121061,-118.169088,876.0
430,"8344 Lilienthal Ave, Los Angeles, CA 90045",949000,Los Angeles,33.96221,-118.385747,1152.0
431,"1234 W 37th Dr, Los Angeles, CA 90007",1295000,Los Angeles,34.018815,-118.295669,1450.0
432,"10433 Wilshire Blvd, Apt 1205, Los Angeles, CA 90024",1885000,Los Angeles,34.066372,-118.4307,2420.0
433,"645 W 9th St, Apt 740, Los Angeles, CA 90015",718000,Los Angeles,34.04581,-118.260585,1190.0
434,"519 N Alexandria Ave, Los Angeles, CA 90004",1390000,Los Angeles,34.079659,-118.298419,3464.0
435,"10520 Wilshire Blvd, Apt 306, Los Angeles, CA 90024",1430000,Los Angeles,34.063375,-118.432005,2071.0
436,"825 N Croft Ave, Apt 102, Los Angeles, CA 90069",1349000,Los Angeles,34.08611,-118.374534,1278.0
437,"1321 W 50th St, Los Angeles, CA 90037",799999,Los Angeles,33.998057,-118.29878,1300.0
438,"1978 Estrella Ave, Los Angeles, CA 90007",2495000,Los Angeles,34.033251,-118.275327,4552.0
439,"5624 W Murray Ln, Los Angeles, CA 90016",1475000,Los Angeles,34.026402,-118.353127,2608.0
440,"5621 W Murray Ln, Los Angeles, CA 90016",1375000,Los Angeles,34.026402,-118.353127,1926.0
441,"257 S Spring St, Apt 4B, Los Angeles, CA 90012",510000,Los Angeles,34.050732,-118.247178,700.0
442,"436 W 76th St, Los Angeles, CA 90003",749000,Los Angeles,33.97053,-118.281641,2259.0
443,"12824 Judd St, Los Angeles, CA 91331",780000,Los Angeles,34.276982,-118.412135,1290.0
444,"8661 Hillside Ave, Los Angeles, CA 90069",5995000,Los Angeles,34.101415,-118.374575,4668.0
445,"5000 Ladd Ave, Los Angeles, CA 90032",699988,Los Angeles,34.074911,-118.177446,814.0
446,"1241 Irolo St, Los Angeles, CA 90006",3100000,Los Angeles,34.047899,-118.301326,6555.0
447,"801 S Plymouth Blvd, Apt 305, Los Angeles, CA 90005",801000,Los Angeles,34.059779,-118.32447,1232.0
448,"10639 Eastborne Ave, Los Angeles, CA 90024",3100000,Los Angeles,34.054045,-118.431512,5288.0
449,"2721 Lancaster Ave, Los Angeles, CA 90033",1025000,Los Angeles,34.057977,-118.196104,2822.0
450,"1546 N St Andrews Pl, Los Angeles, CA 90028",1289000,Los Angeles,34.098925,-118.311278,1154.0
451,"316 W 79th St, Los Angeles, CA 90003",625000,Los Angeles,33.967586,-118.279014,1750.0
452,"5376 Fairview Blvd, Apt 102, Los Angeles, CA 90056",599000,Los Angeles,33.979439,-118.374281,1293.0
453,"858 N Virgil Ave, Los Angeles, CA 90029",1595000,Los Angeles,34.087087,-118.286554,3288.0
454,"229 Columbia Pl, Los Angeles, CA 90026",739000,Los Angeles,34.060662,-118.262754,1364.0
455,"1547 5th Ave, Los Angeles, CA 90019",1459000,Los Angeles,34.044048,-118.322815,4054.0
456,"2120 Brawley St, Los Angeles, CA 90032",1050000,Los Angeles,34.068811,-118.177814,3230.0
457,"5314 5th Ave, Los Angeles, CA 90043",698888,Los Angeles,33.994557,-118.322196,936.0
458,"2006 Judson St, Los Angeles, CA 90033",689800,Los Angeles,34.053589,-118.210176,1177.0
459,"317 S Windsor Blvd, Los Angeles, CA 90020",10995000,Los Angeles,34.06815,-118.321859,10821.0
460,"11807 Verona Ln, Los Angeles, CA 90047",749000,Los Angeles,33.925433,-118.302118,1716.0
461,"3423 Montclair St, Los Angeles, CA 90018",1100000,Los Angeles,34.029921,-118.322065,2541.0
462,"1635 New Jersey St, Los Angeles, CA 90033",999990,Los Angeles,34.050623,-118.218156,2954.0
463,"417 Cornwell St, Los Angeles, CA 90033",699000,Los Angeles,34.050375,-118.208342,1122.0
464,"943 Figueroa Ter, Apt 13, Los Angeles, CA 90012",788000,Los Angeles,34.067728,-118.243363,1350.0
465,"3869 Carnavon Way, Los Angeles, CA 90027",3295000,Los Angeles,34.118261,-118.278515,3500.0
466,"6152 Poppy Peak Dr, Los Angeles, CA 90042",859888,Los Angeles,34.128502,-118.185577,744.0
467,"267 S San Pedro St, Unit 622, Los Angeles, CA 90012",449000,Los Angeles,34.048012,-118.242971,970.0
468,"7742 Isis Ave, Los Angeles, CA 90045",2675000,Los Angeles,33.966485,-118.375913,2900.0
469,"1644 W 106th St, Los Angeles, CA 90047",625000,Los Angeles,33.939756,-118.306228,1360.0
470,"609 S Vicki Ln, Anaheim, CA 92804",750000,Anaheim,33.824412,-117.984391,1964.0
471,"841 S Philadelphia St, Anaheim, CA 92805",1399999,Anaheim,33.825846,-117.908379,3012.0
472,"310 S Mohler Dr, Anaheim, CA 92808",2250000,Anaheim,33.858326,-117.760019,4035.0
473,"2300 S Lewis St, Spc 79, Anaheim, CA 92802",154900,Anaheim,33.791593,-117.897023,1100.0
474,"320 N Park Vista St, Spc 161, Anaheim, CA 92806",130000,Anaheim,33.844316,-117.866372,1368.0
475,"201 N Tustin Ave Apt A, Anaheim, CA 92807",445000,Anaheim,33.843712,-117.833651,786.0
476,"7670 E Eucalyptus Way, Anaheim, CA 92808",995000,Anaheim,33.863512,-117.762479,1786.0
477,"190 S Cobblestone Ln, Anaheim, CA 92807",4600000,Anaheim,33.844698,-117.812563,6701.0
478,"640 S Aberdeen St, Anaheim, CA 92807",1300000,Anaheim,33.838243,-117.808072,2188.0
479,"125 N Belinda Cir, Anaheim, CA 92801",12500000,Anaheim,33.83375,-117.966043,75554.0
480,"1169 S Pointe Premier, Anaheim, CA 92807",3500000,Anaheim,33.82671,-117.750839,7463.0
481,"940 S Jay Cir, Anaheim, CA 92808",1300000,Anaheim,33.844973,-117.74554,3118.0
482,"146 S Seneca Cir, Unit 23, Anaheim, CA 92805",620000,Anaheim,33.832892,-117.922006,1298.0
483,"1891 S Union St, Unit 112, Anaheim, CA 92805",749000,Anaheim,33.799927,-117.892335,1613.0
484,"1318 N Sunshine Way, Anaheim, CA 92806",1495000,Anaheim,33.854259,-117.877976,3820.0
485,"1900 W Glenoaks Ave Apt C, Anaheim, CA 92801",539000,Anaheim,33.842493,-117.947593,1339.0
486,"2651 W Lincoln Ave, Unit 17, Anaheim, CA 92801",687000,Anaheim,33.832387,-117.978625,1535.0
487,"1213 E Adele St, Anaheim, CA 92805",792000,Anaheim,33.841383,-117.903074,1268.0
488,"2300 S Lewis St, Spc 158, Anaheim, CA 92802",170000,Anaheim,33.79141,-117.894017,1300.0
489,"505 S Reseda St, Anaheim, CA 92806",829900,Anaheim,33.836246,-117.888489,1411.0
490,"817 S Anaheim Blvd, Unit 106, Anaheim, CA 92805",724900,Anaheim,33.825975,-117.910925,1540.0
491,"861 861 1 2 S Lemon St, Anaheim, CA 92805",1339000,Anaheim,33.82407,-117.91269,2792.0
492,"2437 W Glencrest Ave, Anaheim, CA 92801",839999,Anaheim,33.840595,-117.969612,1284.0
493,"1521 W Crone Ave, Anaheim, CA 92802",849999,Anaheim,33.822005,-117.933799,1684.0
494,"57 Maple Via, Anaheim, CA 92801",129000,Anaheim,33.862922,-117.912888,1050.0
495,"4836 E Wasatch Dr, Anaheim, CA 92807",928000,Anaheim,33.851553,-117.811617,1591.0
496,"531 N Harcourt St, Anaheim, CA 92801",790000,Anaheim,33.838724,-117.974033,1267.0
497,"260 S Seneca Cir, Unit 38, Anaheim, CA 92805",585000,Anaheim,33.832892,-117.922006,1217.0
498,"1139 W North St, Anaheim, CA 92801",2700000,Anaheim,33.841919,-117.931714,6700.0
499,"3574 W Carrotwood Ct, Unit F, Anaheim, CA 92804",532000,Anaheim,33.812742,-118.011481,968.0
500,"6142 E San Lorenzo Ln, Anaheim, CA 92807",995000,Anaheim,33.85504,-117.774178,1791.0
501,"3062 W Teranimar Dr, Anaheim, CA 92804",950000,Anaheim,33.819709,-117.996587,1614.0
502,"1150 N Brantford St, Anaheim, CA 92805",1150000,Anaheim,33.849943,-117.892445,2706.0
503,"823 S Anaheim Blvd, Unit 103, Anaheim, CA 92805",775000,Anaheim,33.825494,-117.910752,1583.0
504,"7322 Braeburn St, Anaheim, CA 92801",875000,Anaheim,33.854343,-117.97018,1605.0
505,"2614 W Meadowview Ln, Anaheim, CA 92804",630000,Anaheim,33.816275,-117.976092,1250.0
506,"597 E Chartres St, Anaheim, CA 92805",1025000,Anaheim,33.838783,-117.907958,2083.0
507,"3050 W Ball Rd, Spc 31, Anaheim, CA 92804",220000,Anaheim,33.815005,-117.997548,1488.0
508,"314 N Philadelphia St, Anaheim, CA 92805",599000,Anaheim,33.838926,-117.911711,1008.0
509,"3050 W Ball Rd, Spc 10, Anaheim, CA 92804",160000,Anaheim,33.816831,-117.99723,1100.0
510,"1368 S Country Glen Way, Anaheim, CA 92808",765000,Anaheim,33.852901,-117.724861,1248.0
511,"1121 N Anaheim Blvd, Anaheim, CA 92801",849000,Anaheim,33.848215,-117.919986,1376.0
512,"134 S Magnolia Ave, Unit 12B, Anaheim, CA 92804",475000,Anaheim,33.830898,-117.974811,1042.0
513,"7589 E Vis, Del Sol, Anaheim, CA 92808",3490000,Anaheim,33.854998,-117.759852,6500.0
514,"953 S Salem St, Anaheim, CA 92802",799900,Anaheim,33.818493,-117.927794,1339.0
515,"1540 W Ball Rd, Anaheim, CA 92802",1100000,Anaheim,33.8168,-117.935378,2112.0
516,"143 S Larkwood St, Anaheim, CA 92808",790000,Anaheim,33.867193,-117.740582,1028.0
517,"823 S Anaheim Blvd, Unit 101, Anaheim, CA 92805",779000,Anaheim,33.825494,-117.910752,1583.0
518,"1250 S Brookhurst St, Unit 2070, Anaheim, CA 92804",429900,Anaheim,33.815923,-117.957011,912.0
519,"393 N Ironpike Cir, Unit 21, Anaheim, CA 92807",525000,Anaheim,33.845248,-117.83178,847.0
520,"6117 E Baja Dr, Anaheim, CA 92807",1275000,Anaheim,33.853959,-117.77762,2328.0
521,"110 S Strada Pl, Anaheim, CA 92807",2995000,Anaheim,33.84509,-117.818244,5520.0
522,"495 S Paseo Bandera, Anaheim, CA 92807",1379888,Anaheim,33.843769,-117.791427,2901.0
523,"2109 W Juno Ave, Anaheim, CA 92804",1399000,Anaheim,33.818992,-117.955024,2526.0
524,"212 E Charlotte Ave, Anaheim, CA 92805",822000,Anaheim,33.820749,-117.907185,1593.0
525,"46 Pine Via, Anaheim, CA 92801",97900,Anaheim,33.864737,-117.912937,1040.0
526,"541 N Fairhaven St, Anaheim, CA 92801",730000,Anaheim,33.839113,-117.942737,1297.0
527,"130 S Lakeview Ave, Anaheim, CA 92807",3588888,Anaheim,33.848793,-117.812031,7593.0
528,"3402 W Danbrook Ave, Anaheim, CA 92804",1399999,Anaheim,33.827522,-118.008529,3150.0
529,"3400 W Thornton Ave, Anaheim, CA 92804",692000,Anaheim,33.812933,-118.008068,823.0
530,"1879 N Cymbal Pl, Anaheim, CA 92807",849900,Anaheim,33.871376,-117.806772,1605.0
531,"1583 E Lincoln Ave, Anaheim, CA 92805",695000,Anaheim,33.839779,-117.895967,1628.0
532,"4721 E Copa De Oro Dr, Anaheim, CA 92807",5500000,Anaheim,33.840424,-117.812403,10000.0
533,"3113 W Vallejo Dr, Anaheim, CA 92804",898000,Anaheim,33.826035,-117.998792,2077.0
534,"634 S Sonya Pl, Anaheim, CA 92802",987000,Anaheim,33.824189,-117.935859,1695.0
535,"507 N Plantation Pl, Anaheim, CA 92806",889000,Anaheim,33.846079,-117.872496,2173.0
536,"1828 N Cymbal Way, Anaheim, CA 92807",889000,Anaheim,33.868916,-117.806295,1680.0
537,"866 S Chantilly St, Anaheim, CA 92806",700000,Anaheim,33.828678,-117.874959,1974.0
538,"10951 Rustic Ln, Anaheim, CA 92804",950000,Anaheim,33.803445,-117.973759,1288.0
539,"704 N Anna Dr, Anaheim, CA 92805",1850000,Anaheim,33.846371,-117.897198,3830.0
540,"2149 W York Cir, Anaheim, CA 92804",586888,Anaheim,33.818457,-117.957209,1343.0
541,"1017 N Gilbert St, Anaheim, CA 92801",710000,Anaheim,33.846332,-117.96813,1291.0
542,"3504 W Mungall Dr, Anaheim, CA 92804",1600000,Anaheim,33.823063,-118.011171,3710.0
543,"5901 E Cowboy Cir, Anaheim, CA 92807",1499950,Anaheim,33.841161,-117.78539,3092.0
544,"703 N Janss St, Anaheim, CA 92805",808000,Anaheim,33.840413,-117.923907,1488.0
545,"1650 S Pounders Ln, Anaheim, CA 92804",899999,Anaheim,33.806181,-117.944236,1521.0
546,"3311 W Lincoln Ave, Apt 1, Anaheim, CA 92801",665000,Anaheim,33.83228,-118.005848,1604.0
547,"1232 W La Palma Ave, Anaheim, CA 92801",649900,Anaheim,33.846904,-117.934522,912.0
548,"28 Pine Via, Anaheim, CA 92801",237500,Anaheim,33.863835,-117.914037,1620.0
549,"923 E Weaver Ln, Anaheim, CA 92802",719900,Anaheim,33.793036,-117.893793,1356.0
550,"5815 E La Palma Ave, Spc 119, Anaheim, CA 92807",225000,Anaheim,33.861581,-117.782404,1300.0
551,"10601 Patricia Dr, Anaheim, CA 92804",969000,Anaheim,33.808779,-117.966931,1214.0
552,"1550 W Minerva Ave, Anaheim, CA 92802",800000,Anaheim,33.819354,-117.935002,1774.0
553,"2625 E Ward Ter, Anaheim, CA 92806",1010000,Anaheim,33.840321,-117.874953,2361.0
554,"1400 S Sunkist St, Spc 137, Anaheim, CA 92806",198900,Anaheim,33.81434,-117.881294,1856.0
555,"305 S Quadrilateral Way, Anaheim, CA 92802",818888,Anaheim,33.828539,-117.940711,1945.0
556,"1800 W Glencrest Ave, Anaheim, CA 92801",5200000,Anaheim,33.840115,-117.945653,13484.0
557,"2158 W Niobe Ave, Anaheim, CA 92804",775000,Anaheim,33.822449,-117.957461,1438.0
558,"1780 N Azure St, Anaheim, CA 92807",999000,Anaheim,33.869038,-117.815646,2000.0
559,"1485 W Cerritos Ave, Unit 10, Anaheim, CA 92802",658000,Anaheim,33.811516,-117.931565,1446.0
560,"191 S Larkwood St, Anaheim, CA 92808",925000,Anaheim,33.866475,-117.740069,1374.0
561,"901 S Sedona Ln, Anaheim, CA 92808",1250000,Anaheim,33.859672,-117.727238,2065.0
562,"2300 S Lewis St, Spc 15, Anaheim, CA 92802",165000,Anaheim,33.792089,-117.896912,1344.0
563,"4831 E Copa De Oro Dr, Anaheim, CA 92807",4998888,Anaheim,33.842334,-117.811315,9503.0
564,"3181 W Rome Ave, Anaheim, CA 92804",849999,Anaheim,33.820736,-118.001843,1374.0
565,"718 S Camino Grande, Anaheim, CA 92807",739000,Anaheim,33.838975,-117.758198,1539.0
566,"402 S Danbrook Dr, Anaheim, CA 92804",750000,Anaheim,33.826668,-118.008059,1399.0
567,"584 S Andover Dr, Anaheim, CA 92807",1388000,Anaheim,33.840981,-117.802104,3066.0
568,"2040 W Broadway, Anaheim, CA 92804",1349999,Anaheim,33.828613,-117.95404,3137.0
569,"180 S Hidden Path, Anaheim, CA 92801",1100000,Anaheim,33.831475,-117.964474,2499.0
570,"946 E Drapery Ln, Anaheim, CA 92802",799900,Anaheim,33.792294,-117.893196,1572.0
571,"314 S Illinois St, Anaheim, CA 92805",950000,Anaheim,33.829968,-117.92492,2031.0
572,"2304 W Canopy Ln, Unit 1, Anaheim, CA 92801",1099000,Anaheim,33.830742,-117.963492,2737.0
573,"157 S Donna Ct, Anaheim, CA 92807",1259900,Anaheim,33.855624,-117.770282,2689.0
574,"1837 W Cerritos Ave, Anaheim, CA 92804",850000,Anaheim,33.810794,-117.947665,2060.0
575,"6567 E Camino Vis, Unit 3, Anaheim, CA 92807",730000,Anaheim,33.840098,-117.759958,1540.0
576,"63 Lemon Via, Anaheim, CA 92801",119500,Anaheim,33.863157,-117.912625,1152.0
577,"2961 W Lincoln Ave, Unit 1, Anaheim, CA 92801",861281,Anaheim,33.832287,-117.991784,1991.0
578,"1183 N Voyager Ln, Anaheim, CA 92801",699900,Anaheim,33.848159,-117.950016,1461.0
579,"1749 N Oxford St, Anaheim, CA 92806",805000,Anaheim,33.867642,-117.859172,1427.0
580,"2951 W Lincoln Ave, Unit 8, Anaheim, CA 92801",675200,Anaheim,33.832333,-117.99198,1084.0
581,"626 S Harbor Blvd, Anaheim, CA 92805",799999,Anaheim,33.826662,-117.91677,1400.0
582,"320 N Park Vista St, Spc 36, Anaheim, CA 92806",208000,Anaheim,33.843836,-117.865668,1440.0
583,"1250 S Brookhurst St, Unit 1017, Anaheim, CA 92804",449900,Anaheim,33.815923,-117.957011,912.0
584,"729 N Clementine St, Anaheim, CA 92805",999999,Anaheim,33.842252,-117.919925,2912.0
585,"193 N Magnolia Ave Apt A, Anaheim, CA 92801",645000,Anaheim,33.833563,-117.976716,1238.0
586,"513 S Dale Ave, Anaheim, CA 92804",795000,Anaheim,33.825553,-117.985004,1724.0
587,"226 N Berniece Dr, Anaheim, CA 92801",760000,Anaheim,33.834898,-117.953098,1871.0
588,"370 S Yorkshire Cir, Anaheim, CA 92808",1950000,Anaheim,33.857466,-117.761344,4040.0
589,"2953 W Lincoln Ave, Unit 3, Anaheim, CA 92801",850978,Anaheim,33.832287,-117.991509,2001.0
590,"1442 E Norman Ave, Anaheim, CA 92805",735000,Anaheim,33.823788,-117.893041,1238.0
591,"924 N Fairview St, Anaheim, CA 92801",780000,Anaheim,33.844801,-117.951472,1562.0
592,"2580 E Lark Ellen Ln, Anaheim, CA 92806",995000,Anaheim,33.81572,-117.878145,1963.0
593,"21 Magnolia Via, Unit 353, Anaheim, CA 92801",100000,Anaheim,33.866009,-117.913655,1080.0
594,"127 N Gilbert St, Anaheim, CA 92801",1100000,Anaheim,33.833589,-117.967975,2461.0
595,"1640 S Carnelian St, Anaheim, CA 92802",899900,Anaheim,33.80662,-117.937207,2708.0
596,"836 N Zeyn St, Anaheim, CA 92805",975000,Anaheim,33.845461,-117.917944,2085.0
597,"419 N Alice Way, Unit D, Anaheim, CA 92806",585000,Anaheim,33.844834,-117.867731,1020.0
598,"2957 W Lincoln Ave, Unit 8, Anaheim, CA 92801",765941,Anaheim,33.832287,-117.991509,1339.0
599,"5211 E Fairlee Ct, Anaheim, CA 92807",1365000,Anaheim,33.842892,-117.802916,3099.0
600,"1854 S Janette Ln, Anaheim, CA 92802",1199000,Anaheim,33.801256,-117.928519,1780.0
601,"705 S Sylvan St, Anaheim, CA 92804",825000,Anaheim,33.822927,-117.979247,1359.0
602,"5346 E Westridge Rd, Anaheim, CA 92807",1388000,Anaheim,33.844281,-117.798726,2680.0
603,"2427 E Seville Ave, Anaheim, CA 92806",968888,Anaheim,33.843089,-117.881608,1830.0
604,"506 S Westgate Dr, Anaheim, CA 92806",874999,Anaheim,33.835973,-117.867477,1598.0
605,"6103 E Morningview Dr, Unit 7, Anaheim, CA 92807",975000,Anaheim,33.84151,-117.776295,2388.0
606,"1907 W Folsom St, Anaheim, CA 92804",829000,Anaheim,33.806594,-117.950565,1468.0
607,"9006 Stacie Ln, Unit 26, Anaheim, CA 92804",619000,Anaheim,33.8054,-117.974749,1526.0
608,"1919 W Coronet Ave, Spc 113, Anaheim, CA 92801",245000,Anaheim,33.852784,-117.947532,1680.0
609,"801 S Anaheim Blvd, Unit 106, Anaheim, CA 92805",765000,Anaheim,33.826565,-117.911122,1753.0
610,"568 S Wayside St, Anaheim, CA 92805",830000,Anaheim,33.832978,-117.893703,1600.0
611,"3108 W Graciosa Ln, Anaheim, CA 92804",899000,Anaheim,33.828753,-117.99883,1773.0
612,"371 S Silverbrook Dr, Anaheim, CA 92807",1415000,Anaheim,33.84819,-117.799294,2631.0
613,"531 S Indian Trl, Unit 41, Anaheim, CA 92807",849000,Anaheim,33.843654,-117.787117,1344.0
614,"2817 E Jackson Ave Unit B, Anaheim, CA 92806",574900,Anaheim,33.845072,-117.869922,1266.0
615,"1318 W Cara Dr, Anaheim, CA 92805",838000,Anaheim,33.809451,-117.90749,1296.0
616,"7735 E Northfield Ave, Anaheim, CA 92807",875000,Anaheim,33.872593,-117.769155,1511.0
617,"2668 W Glencrest Ave, Anaheim, CA 92801",814900,Anaheim,33.840017,-117.979388,1580.0
618,"1616 S Euclid St, Spc 26, Anaheim, CA 92802",200000,Anaheim,33.807443,-117.940517,1344.0
619,"1279 N Willet Cir, Anaheim, CA 92807",899999,Anaheim,33.873498,-117.764241,1711.0
620,"1635 W Lincoln Ave, Unit 103, Anaheim, CA 92801",769990,Anaheim,33.832819,-117.937449,1799.0
621,"210 S Vine St, Anaheim, CA 92805",795000,Anaheim,33.836207,-117.905361,1500.0
622,"104 S Kingsley St, Anaheim, CA 92806",1138000,Anaheim,33.841442,-117.866605,1926.0
623,"963 E Mason Ln, Unit 88, Anaheim, CA 92805",719000,Anaheim,33.805305,-117.896194,1603.0
624,"520 S Circulo Lazo, Anaheim, CA 92807",1060000,Anaheim,33.845576,-117.770138,1589.0
625,"1514 W Bushell St, Anaheim, CA 92805",795000,Anaheim,33.810053,-117.908023,1242.0
626,"1319 W Cara Dr, Anaheim, CA 92805",1100000,Anaheim,33.809759,-117.907449,1881.0
627,"2528 E Standish Ave, Anaheim, CA 92806",809000,Anaheim,33.832946,-117.879373,1610.0
628,"1801 E Katella Ave, Apt 1036, Anaheim, CA 92805",435000,Anaheim,33.804332,-117.890222,535.0
629,"649 S District Way, Anaheim, CA 92805",682000,Anaheim,33.83001,-117.900696,1308.0
630,"7915 E Acorn Ct, Anaheim, CA 92808",684000,Anaheim,33.850929,-117.73802,1357.0
631,"250 E Ponderosa Ln, Unit 20, Anaheim, CA 92802",675000,Anaheim,33.792993,-117.904732,1724.0
632,"1531 S Dallas Dr, Anaheim, CA 92804",1359000,Anaheim,33.809169,-117.954343,2300.0
633,"1506 W Cara Dr, Anaheim, CA 92805",788000,Anaheim,33.809759,-117.907449,1242.0
634,"6519 E Camino Vis, Unit 4, Anaheim, CA 92807",730000,Anaheim,33.839128,-117.76245,1539.0
635,"280 N Avenida Malaga, Anaheim, CA 92808",1195000,Anaheim,33.861795,-117.771451,2863.0
636,"1250 N State College Blvd, Spc 76, Anaheim, CA 92806",225000,Anaheim,33.852552,-117.888629,1344.0
637,"2849 W Lynrose Dr, Anaheim, CA 92804",809999,Anaheim,33.819546,-117.98713,1356.0
638,"1176 S Night Star Way, Anaheim, CA 92808",1649950,Anaheim,33.85198,-117.729416,3573.0
639,"360 S Coyote Ln, Anaheim, CA 92808",2250000,Anaheim,33.85585,-117.759761,4379.0
640,"513 N Royal St, Anaheim, CA 92806",799000,Anaheim,33.846276,-117.873366,1944.0
641,"364 S Royal Ridge Dr, Anaheim, CA 92807",1749878,Anaheim,33.849785,-117.76996,3883.0
642,"113 S Level Pl, Anaheim, CA 92804",789900,Anaheim,33.831682,-117.971555,1358.0
643,"1225 E Live Oak Ct, Anaheim, CA 92805",949800,Anaheim,33.830427,-117.898963,2031.0
644,"2674 W Sereno Pl, Anaheim, CA 92804",800000,Anaheim,33.829793,-117.97966,2017.0
645,"1010 E Broadway, Anaheim, CA 92805",1595000,Anaheim,33.835306,-117.903301,3638.0
646,"1114 W Cara Dr, Anaheim, CA 92805",1030000,Anaheim,33.809759,-117.907449,1881.0
647,"8267 E Marblehead Way, Anaheim, CA 92808",1700000,Anaheim,33.853077,-117.73066,3522.0
648,"2133 W Lullaby Ln, Anaheim, CA 92804",825000,Anaheim,33.811528,-117.956726,1112.0
649,"1551 W Beacon Ave, Anaheim, CA 92802",799888,Anaheim,33.820498,-117.935003,1348.0
650,"7928 E Horizon View Dr, Anaheim, CA 92808",779900,Anaheim,33.851964,-117.738985,1512.0
651,"5624 E Vis, Del Valle, Anaheim, CA 92807",750000,Anaheim,33.845811,-117.792121,1632.0
652,"974 S Country Glen Way, Anaheim, CA 92808",625000,Anaheim,33.852901,-117.724861,1046.0
653,"211 E Wilhelmina St, Anaheim, CA 92805",750000,Anaheim,33.842712,-117.914329,1034.0
654,"1527 W Palais Rd, Anaheim, CA 92802",909000,Anaheim,33.814105,-117.933962,1614.0
655,"1540 W Chanticleer Rd, Anaheim, CA 92802",875000,Anaheim,33.812818,-117.93456,1314.0
656,"5817 E Avenida Portola, Anaheim, CA 92807",979000,Anaheim,33.850897,-117.785515,1400.0
657,"689 E Valencia St, Anaheim, CA 92805",780000,Anaheim,33.829668,-117.904923,1390.0
658,"5946 E Calle Principia, Anaheim, CA 92807",1050000,Anaheim,33.844287,-117.784414,2337.0
659,"1424 E Bassett Way, Anaheim, CA 92805",799888,Anaheim,33.821357,-117.8933,1400.0
660,"114 S Harbor Blvd, Anaheim, CA 92805",569000,Anaheim,33.833976,-117.918816,1528.0
661,"1428 S Sherrill St, Anaheim, CA 92804",995000,Anaheim,33.811297,-117.979379,2272.0
662,"515 N Citron St, Anaheim, CA 92805",989900,Anaheim,33.83825,-117.925229,2359.0
663,"306 S Whitestone Dr, Anaheim, CA 92807",1580000,Anaheim,33.852407,-117.769949,3404.0
664,"3157 W Lindacita Ln, Anaheim, CA 92804",744900,Anaheim,33.826762,-118.000876,1565.0
665,"7551 E Hollow Oak Rd, Anaheim, CA 92808",1195000,Anaheim,33.85455,-117.750415,2561.0
666,"933 S Roberts St, Anaheim, CA 92802",2500000,Anaheim,33.819003,-117.940107,5008.0
667,"1247 N Minot St, Anaheim, CA 92801",689000,Anaheim,33.850792,-117.966417,1236.0
668,"2300 S Lewis St, Spc 163, Anaheim, CA 92802",249000,Anaheim,33.792691,-117.8936,1904.0
669,"1015 N Cambria Pl, Anaheim, CA 92801",790000,Anaheim,33.846079,-117.971499,1276.0
670,"981 S Sarah Way, Anaheim, CA 92805",740000,Anaheim,33.823536,-117.895931,1346.0
671,"348 S San Vicente Ln, Anaheim, CA 92807",940000,Anaheim,33.846779,-117.776133,2278.0
672,"129 N Sweetwater St, Anaheim, CA 92807",800000,Anaheim,33.847962,-117.820578,1492.0
673,"905 S Reseda St, Anaheim, CA 92806",749999,Anaheim,33.827586,-117.888575,1248.0
674,"1250 S Brookhurst St, Unit 1104, Anaheim, CA 92804",300000,Anaheim,33.815923,-117.957011,1172.0
675,"5534 E Vis, Del Dia, Anaheim, CA 92807",775000,Anaheim,33.8468,-117.793833,1646.0
676,"120 S Seneca Cir, Unit 10, Anaheim, CA 92805",610000,Anaheim,33.832892,-117.922006,1292.0
677,"511 N Century Dr, Anaheim, CA 92805",789900,Anaheim,33.844206,-117.898873,1581.0
678,"1616 S Euclid St, Spc 20, Anaheim, CA 92802",125000,Anaheim,33.808429,-117.940467,1400.0
679,"609 S Iron Horse Ln, Anaheim, CA 92807",825000,Anaheim,33.83876,-117.77826,1538.0
680,"435 W Center St, Promenade Unit 330, Anaheim, CA 92805",599000,Anaheim,33.833928,-117.918584,1547.0
681,"1211 E Wilhelmina St, Anaheim, CA 92805",759000,Anaheim,33.845489,-117.904481,1458.0
682,"2509 W Crescent Ave, Anaheim, CA 92801",750000,Anaheim,33.839825,-117.972205,1259.0
683,"527 N Anna Dr, Anaheim, CA 92805",6300000,Anaheim,33.846161,-117.896721,10200.0
684,"8051 E Snowberry Ln, Anaheim, CA 92808",650000,Anaheim,33.862712,-117.740092,1374.0
685,"120 W Simmons Ave, Anaheim, CA 92802",885000,Anaheim,33.792517,-117.907203,1563.0
686,"752 S Fairway Ln, Anaheim, CA 92807",1250000,Anaheim,33.837894,-117.766525,2436.0
687,"732 N East St, Anaheim, CA 92805",3250000,Anaheim,33.846053,-117.904704,6750.0
688,"773 S Kroeger St, Anaheim, CA 92805",799800,Anaheim,33.828719,-117.904044,1716.0
689,"607 S Dale Ave, Anaheim, CA 92804",689000,Anaheim,33.824466,-117.984982,1220.0
690,"314 S Velva Pl, Anaheim, CA 92804",838000,Anaheim,33.828261,-117.946856,1374.0
691,"1717 N Tympani Cir, Anaheim, CA 92807",775000,Anaheim,33.865877,-117.806351,1372.0
692,"1875 W Falmouth Ave, Unit 58, Anaheim, CA 92801",530000,Anaheim,33.847788,-117.950644,939.0
693,"801 S Anaheim Blvd, Anaheim, CA 92805",765000,Anaheim,33.826565,-117.911122,1753.0
694,"5251 E Honeywood Ln, Anaheim, CA 92807",1300000,Anaheim,33.84627,-117.801372,2286.0
695,"2648 W Madison Cir, Unit 6, Anaheim, CA 92801",659000,Anaheim,33.836093,-117.976355,1539.0
696,"6497 E Via, Estrada, Anaheim, CA 92807",1269900,Anaheim,33.847935,-117.765832,2271.0
697,"1054 S Verde St, Anaheim, CA 92805",739000,Anaheim,33.82167,-117.889606,1236.0
698,"1238 N Lombard Dr, Anaheim, CA 92801",840000,Anaheim,33.852168,-117.933933,1596.0
699,"5406 E Estate Ridge Rd, Anaheim, CA 92807",1249900,Anaheim,33.837511,-117.797491,2654.0
700,"5573 E Vis, Del Rio, Anaheim, CA 92807",675000,Anaheim,33.849189,-117.792797,1116.0
701,"206 N Sagamore St, Anaheim, CA 92807",799900,Anaheim,33.846414,-117.82567,1300.0
702,"120 N Wade Cir, Anaheim, CA 92807",1249900,Anaheim,33.852564,-117.794615,2330.0
703,"5095 E Greensboro Ln, Anaheim, CA 92807",1275000,Anaheim,33.842777,-117.805269,2319.0
704,"1406 S Urban St, Anaheim, CA 92805",1049000,Anaheim,33.836467,-117.913622,1881.0
705,"300 S Smokeridge Ter, Anaheim, CA 92807",1199000,Anaheim,33.848471,-117.797594,2235.0
706,"1832 W Willow Ave, Anaheim, CA 92804",1499888,Anaheim,33.825988,-117.947254,3976.0
707,"1919 W Coronet Ave, Spc 21, Anaheim, CA 92801",265000,Anaheim,33.852178,-117.94533,1640.0
708,"712 S Lost Canyon Rd, Anaheim, CA 92808",1475000,Anaheim,33.858111,-117.751928,3097.0
709,"138 N Wade Cir, Anaheim, CA 92807",1195000,Anaheim,33.853011,-117.794705,2330.0
710,"613 N Glenwood Pl, Anaheim, CA 92805",1100000,Anaheim,33.84423,-117.902796,1805.0
711,"6279 E Paseo Aldeano, Anaheim, CA 92807",945000,Anaheim,33.860275,-117.774282,1249.0
712,"2902 W Rome Ave, Anaheim, CA 92804",998000,Anaheim,33.820515,-117.989281,2226.0
713,"5815 E La Palma Ave, Spc 239, Anaheim, CA 92807",205000,Anaheim,33.861224,-117.78435,1440.0
714,"2300 S Lewis St, Spc 101, Anaheim, CA 92802",215000,Anaheim,33.792177,-117.895344,1512.0
715,"1541 E La Palma Ave, Unit A2, Anaheim, CA 92805",449000,Anaheim,33.848251,-117.8963,975.0
716,"2025 W Dogwood Ave, Anaheim, CA 92801",650000,Anaheim,33.846402,-117.95298,998.0
717,"1523 W Beacon Ave, Anaheim, CA 92802",865000,Anaheim,33.820508,-117.933767,2054.0
718,"5815 E La Palma Ave, Spc 212, Anaheim, CA 92807",159900,Anaheim,33.860886,-117.785533,1456.0
719,"5899 E Trapper Trl, Anaheim, CA 92807",1485000,Anaheim,33.839257,-117.786503,3191.0
720,"8504 E Meadowridge St, Anaheim, CA 92808",990000,Anaheim,33.867505,-117.736535,1378.0
721,"8448 E Cody Way, Unit 43, Anaheim, CA 92808",660000,Anaheim,33.857739,-117.727872,1046.0
722,"5 Walnut Via, Anaheim, CA 92801",69000,Anaheim,33.860027,-117.914301,888.0
723,"996 S Ridgecrest Cir, Anaheim, CA 92807",995000,Anaheim,33.840793,-117.746168,1887.0
724,"1936 W Harle Ave, Anaheim, CA 92804",799000,Anaheim,33.809618,-117.952015,1126.0
725,"1709 N Holbrook St, Anaheim, CA 92807",689000,Anaheim,33.866601,-117.813586,1473.0
726,"1616 S Euclid St, Spc 15, Anaheim, CA 92802",99900,Anaheim,33.808309,-117.940517,1057.0
727,"6525 E Camino Vis, Unit 6, Anaheim, CA 92807",699900,Anaheim,33.839986,-117.761626,1123.0
728,"1850 W Greenleaf Ave Apt D, Anaheim, CA 92801",360000,Anaheim,33.842493,-117.947593,690.0
729,"6831 E Avenida De Santiago, Anaheim, CA 92807",2800000,Anaheim,33.830544,-117.750935,3613.0
730,"1218 W Cara Dr, Anaheim, CA 92805",849000,Anaheim,33.809563,-117.907741,1242.0
731,"1302 W Arlington Ave, Anaheim, CA 92801",739000,Anaheim,33.852646,-117.935989,1218.0
732,"407 N Vine St, Anaheim, CA 92805",1199000,Anaheim,33.840826,-117.907276,2683.0
733,"1618 S Urbana St, Anaheim, CA 92805",780000,Anaheim,33.810362,-117.906919,1338.0
734,"629 S Dale Ave, Anaheim, CA 92804",749000,Anaheim,33.823586,-117.984974,1229.0
735,"7615 E Calle Durango, Anaheim, CA 92808",1075000,Anaheim,33.863429,-117.76544,2523.0
736,"200 N Grand Ave, Spc 12, Anaheim, CA 92801",295000,Anaheim,33.83294,-117.996522,1440.0
737,"565 S Casita St, Anaheim, CA 92805",709900,Anaheim,33.831882,-117.905884,1300.0
738,"1725 N Rainwood Cir, Apt B, Anaheim, CA 92807",499000,Anaheim,33.863816,-117.794555,942.0
739,"1218 N Riviera St, Anaheim, CA 92801",725000,Anaheim,33.851499,-117.926742,1285.0
740,"1506 S Urbana St, Anaheim, CA 92805",849000,Anaheim,33.809259,-117.906311,1550.0
741,"1116 W Locust Ave, Anaheim, CA 92802",895000,Anaheim,33.822551,-117.924598,1658.0
742,"48 Orange Via, Anaheim, CA 92801",79900,Anaheim,33.862785,-117.912253,1120.0
743,"6560 E Circulo Dali, Anaheim, CA 92807",775000,Anaheim,33.837372,-117.758967,2072.0
744,"8153 E Carnation Way, Anaheim, CA 92808",1225000,Anaheim,33.863704,-117.746081,2216.0
745,"2861 E Jackson Ave Unit D, Anaheim, CA 92806",549000,Anaheim,33.844834,-117.867731,1020.0
746,"1063 S Taylor Ct, Anaheim, CA 92808",1935000,Anaheim,33.84736,-117.734192,3551.0
747,"645 S Magnolia Ave, Anaheim, CA 92804",1990000,Anaheim,33.823056,-117.976403,3683.0
748,"2166 W Brownwood Ave, Anaheim, CA 92801",1625000,Anaheim,33.83685,-117.957952,4537.0
749,"110 N Belinda Cir, Anaheim, CA 92801",1380000,Anaheim,33.832673,-117.965706,3687.0
750,"938 N Harbor Blvd, Anaheim, CA 92805",649000,Anaheim,33.846507,-117.923314,1370.0
751,"908 S Anaheim Blvd, Anaheim, CA 92805",1095000,Anaheim,33.82291,-117.909306,2334.0
752,"912 S Anaheim Blvd, Anaheim, CA 92805",1095000,Anaheim,33.822762,-117.909257,2234.0
753,"1888 S Westside Dr, Unit 60, Anaheim, CA 92805",995000,Anaheim,33.802013,-117.894947,2193.0
754,"8470 E Amberwood St, Anaheim, CA 92808",859900,Anaheim,33.869028,-117.739256,1220.0
755,"1250 S Brookhurst St, Unit 2027, Anaheim, CA 92804",499000,Anaheim,33.815923,-117.957011,1172.0
756,"234 N Pageant St, Anaheim, CA 92807",849900,Anaheim,33.847411,-117.825364,1260.0
757,"6041 E Avenida Arbol, Anaheim, CA 92807",975000,Anaheim,33.856651,-117.781343,2081.0
758,"1405 S Sherrill St, Anaheim, CA 92804",824900,Anaheim,33.81221,-117.979979,1530.0
759,"3139 W Tyler Ave, Anaheim, CA 92801",779000,Anaheim,33.833997,-117.999967,1560.0
760,"6401 E Nohl Ranch Rd, Apt 75, Anaheim, CA 92807",899000,Anaheim,33.84068,-117.766075,2145.0
761,"2895 E Cinnamon Pl, Anaheim, CA 92806",950000,Anaheim,33.843161,-117.870812,2260.0
762,"1800 W Gramercy Ave, Apt 41, Anaheim, CA 92801",580000,Anaheim,33.84117,-117.945075,1340.0
763,"525 N Gilbert St, Spc 151, Anaheim, CA 92801",79000,Anaheim,33.837993,-117.96834,1120.0
764,"2652 W Madison Cir, Anaheim, CA 92801",659000,Anaheim,33.836093,-117.976355,1551.0
765,"3595 W Greentree Cir, Unit F, Anaheim, CA 92804",525000,Anaheim,33.812742,-118.011481,1025.0
766,"722 S Citron St, Anaheim, CA 92805",759900,Anaheim,33.824922,-117.920233,1318.0
767,"320 N Park Vista St, Spc 92, Anaheim, CA 92806",229000,Anaheim,33.842922,-117.863648,2160.0
768,"2283 W Arlington Ave, Anaheim, CA 92801",699900,Anaheim,33.852706,-117.963466,1315.0
769,"6060 E Overland Cir, Anaheim, CA 92807",759000,Anaheim,33.83983,-117.775981,1462.0
770,"795 S Quail Cir, Anaheim, CA 92807",1300000,Anaheim,33.842059,-117.755755,3000.0
771,"251 N Magnolia Ave, Unit 2, Anaheim, CA 92801",785000,Anaheim,33.835372,-117.976193,1606.0
772,"132 S Calle Da Gama, Anaheim, CA 92807",900000,Anaheim,33.850832,-117.786361,1400.0
773,"1325 S Falcon St, Anaheim, CA 92804",924900,Anaheim,33.815277,-117.942927,2664.0
774,"1975 W Ebbtide Way, Anaheim, CA 92801",898888,Anaheim,33.849289,-117.949714,1621.0
775,"2529 W Glenhaven Ave, Anaheim, CA 92801",795000,Anaheim,33.844016,-117.973161,1213.0
776,"481 S Mohler Dr, Anaheim, CA 92808",4060669,Anaheim,33.853525,-117.756148,5622.0
777,"5650 E Plz, De Santos, Anaheim, CA 92807",579000,Anaheim,33.846733,-117.790596,982.0
778,"1801 E Katella Ave, Apt 1033, Anaheim, CA 92805",485000,Anaheim,33.804332,-117.890222,728.0
779,"1191 N Leeward Way, Anaheim, CA 92801",688750,Anaheim,33.849996,-117.948919,1621.0
780,"193 N Magnolia Ave Apt B, Anaheim, CA 92801",619900,Anaheim,33.833656,-117.978033,980.0
781,"8494 E Foothill St, Anaheim, CA 92808",985000,Anaheim,33.866318,-117.73513,1765.0
782,"2428 W Greenleaf Ave, Anaheim, CA 92801",729900,Anaheim,33.842299,-117.969233,1309.0
783,"525 N Gilbert St, Anaheim, CA 92801",169500,Anaheim,33.838722,-117.96999,1368.0
784,"7820 E Woodsboro Ave, Anaheim, CA 92807",960400,Anaheim,33.871324,-117.766211,1438.0
785,"1214 N Holly St, Anaheim, CA 92801",849000,Anaheim,33.851046,-117.953904,1363.0
786,"130 W Valencia Ave, Anaheim, CA 92805",859000,Anaheim,33.824411,-117.911711,1711.0
787,"3060 E Cardinal St, Anaheim, CA 92806",946000,Anaheim,33.867644,-117.864178,2530.0
788,"1312 W Romneya Dr, Anaheim, CA 92801",712025,Anaheim,33.850529,-117.937071,1040.0
789,"250 W Midway Dr, Unit 12, Anaheim, CA 92805",175000,Anaheim,33.812318,-117.91093,750.0
790,"278 N Wilshire Ave, Unit 144, Anaheim, CA 92801",420000,Anaheim,33.834532,-117.932869,1074.0
791,"1635 W Lincoln Ave, Unit 101, Anaheim, CA 92801",719990,Anaheim,33.832818,-117.937465,1498.0
792,"7130 E Colter Cir, Anaheim, CA 92807",1769000,Anaheim,33.838785,-117.742648,3500.0
793,"195 S Ferrari Way, Anaheim, CA 92807",2250000,Anaheim,33.848916,-117.808224,4355.0
794,"1817 W Lullaby Ln, Anaheim, CA 92804",820000,Anaheim,33.811583,-117.946564,2000.0
795,"1506 W Tonia Ct, Anaheim, CA 92802",1249000,Anaheim,33.797451,-117.932882,2235.0
796,"1080 N Baxter St, Anaheim, CA 92805",924999,Anaheim,33.848897,-117.893321,2454.0
797,"6039 E Queens Dr, Anaheim, CA 92807",825000,Anaheim,33.836917,-117.780262,1582.0
798,"220 S Linhaven Cir, Anaheim, CA 92804",899000,Anaheim,33.830829,-117.955272,1805.0
799,"2390 S Willowbrook Ln, Unit 22, Anaheim, CA 92802",625000,Anaheim,33.7902,-117.911398,1350.0
800,"1530 W Cara Dr, Anaheim, CA 92805",825000,Anaheim,33.809155,-117.907924,1508.0
801,"1173 W Chateau Ave, Anaheim, CA 92802",750000,Anaheim,33.821686,-117.926926,1220.0
802,"2110 W Willow Ave, Anaheim, CA 92804",895000,Anaheim,33.825572,-117.955236,1393.0
803,"2746 W Westhaven Dr, Anaheim, CA 92804",950000,Anaheim,33.823155,-117.982267,2426.0
804,"6212 E Twin Peak Cir, Anaheim, CA 92807",820000,Anaheim,33.832226,-117.774886,1464.0
805,"148 N Lohrum Ln, Anaheim, CA 92807",1100000,Anaheim,33.853119,-117.796473,2152.0
806,"6352 E Nohl Ranch Rd, Anaheim, CA 92807",47999999,Anaheim,33.838503,-117.769264,1500.0
807,"1407 W Cara Dr, Anaheim, CA 92805",1090000,Anaheim,33.80965,-117.907786,1913.0
808,"7713 E Viewrim Dr, Anaheim, CA 92808",730000,Anaheim,33.851964,-117.738985,1357.0
809,"5548 E Vis, Del Este, Anaheim, CA 92807",715000,Anaheim,33.848128,-117.792284,1404.0
810,"1128 N Adair Pl, Anaheim, CA 92806",799999,Anaheim,33.85066,-117.886158,1482.0
811,"1473 E Rosewood Ave, Anaheim, CA 92805",799000,Anaheim,33.853523,-117.898814,1270.0
812,"564 S Indian Trl, Unit 53, Anaheim, CA 92807",854000,Anaheim,33.843654,-117.787117,1756.0
813,"8226 E Bailey Way, Anaheim, CA 92808",2199900,Anaheim,33.847801,-117.730083,4755.0
814,"1700 W Cerritos Ave, Unit 207, Anaheim, CA 92804",600000,Anaheim,33.809772,-117.942183,1239.0
815,"1738 S Varna St, Anaheim, CA 92804",859000,Anaheim,33.80377,-117.942899,1063.0
816,"1006 N Onondaga Ave, Anaheim, CA 92801",869000,Anaheim,33.846456,-117.946203,1462.0
817,"205 W Camden Ave, Anaheim, CA 92805",729000,Anaheim,33.821138,-117.911512,1106.0
818,"5081 E Copa De Oro Dr, Anaheim, CA 92807",4990000,Anaheim,33.844272,-117.807395,8215.0
819,"1801 E Katella Ave, Apt 4019, Anaheim, CA 92805",495000,Anaheim,33.804332,-117.890222,728.0
820,"2216 S Anchor St, Anaheim, CA 92802",875000,Anaheim,33.792947,-117.897957,1453.0
821,"1801 E Katella Ave, Apt 1065, Anaheim, CA 92805",379950,Anaheim,33.804332,-117.890222,651.0
822,"915 S Hilda St, Anaheim, CA 92806",850000,Anaheim,33.827332,-117.878116,2004.0
823,"5380 E Cresthill Dr, Anaheim, CA 92807",949900,Anaheim,33.867804,-117.796702,1232.0
824,"6265 E Rio Grande Dr, Anaheim, CA 92807",1088000,Anaheim,33.854534,-117.773322,2449.0
825,"1419 W Trenton Dr, Anaheim, CA 92802",899999,Anaheim,33.805228,-117.932293,2065.0
826,"6034 E Silverspur Trl, Anaheim, CA 92807",920000,Anaheim,33.840379,-117.780757,2161.0
827,"3157 W Westhaven Dr, Anaheim, CA 92804",1099000,Anaheim,33.824386,-118.000716,2534.0
828,"1047 S Daybreak Ct, Anaheim, CA 92808",638000,Anaheim,33.84593,-117.737017,1000.0
829,"320 N Park Vista St, Spc 91, Anaheim, CA 92806",230000,Anaheim,33.842924,-117.863442,1703.0
830,"2360 S Cutty Way, Unit 49, Anaheim, CA 92802",599000,Anaheim,33.7902,-117.911398,1380.0
831,"1237 E Banyan Ave, Anaheim, CA 92805",1099000,Anaheim,33.849707,-117.905088,2760.0
832,"1207 S Courtright St, Anaheim, CA 92804",840000,Anaheim,33.816901,-117.999711,1768.0
833,"1336 S Amberwick Ln, Anaheim, CA 92804",900000,Anaheim,33.813946,-117.957161,1964.0
834,"284 S Leandro St, Anaheim, CA 92807",1425000,Anaheim,33.846687,-117.780878,2597.0
835,"1581 W Pacific Pl, Anaheim, CA 92802",899000,Anaheim,33.808781,-117.936196,1810.0
836,"816 N Redondo Dr E, Anaheim, CA 92801",889500,Anaheim,33.841914,-117.932083,2015.0
837,"804 S Hayward St, Anaheim, CA 92804",870000,Anaheim,33.820368,-117.994662,1766.0
838,"2119 W Broadway, Anaheim, CA 92804",879900,Anaheim,33.829144,-117.955425,1348.0
839,"1733 E Belmont Ave, Anaheim, CA 92805",1099000,Anaheim,33.84803,-117.892521,2762.0
840,"1665 W Recreo Plz, Anaheim, CA 92802",675000,Anaheim,33.793644,-117.939647,1427.0
841,"4348 E Terra Vista Ln, Anaheim, CA 92807",1075000,Anaheim,33.836186,-117.822401,2815.0
842,"623 S Gaymont St, Anaheim, CA 92804",939900,Anaheim,33.823766,-117.991059,2151.0
843,"422 S Vine St, Anaheim, CA 92805",560000,Anaheim,33.833383,-117.904271,1170.0
844,"1250 S Brookhurst St, Unit 1048, Anaheim, CA 92804",455000,Anaheim,33.815923,-117.957011,912.0
845,"970 S Harvard Cir, Anaheim, CA 92807",1399900,Anaheim,33.832641,-117.756698,2922.0
846,"8075 E Sandstone Dr, Anaheim, CA 92808",695000,Anaheim,33.84593,-117.737017,1100.0
847,"1616 S Euclid St, Spc 100, Anaheim, CA 92802",150000,Anaheim,33.808082,-117.937862,1398.0
848,"3571 W Greentree Cir, Unit A, Anaheim, CA 92804",513600,Anaheim,33.812742,-118.011481,1026.0
849,"3135 W Polk Ave, Anaheim, CA 92801",574999,Anaheim,33.833228,-117.999751,954.0
850,"1733 N Landfair St, Anaheim, CA 92806",849499,Anaheim,33.8667,-117.860751,1572.0
851,"784 S Kroeger St, Anaheim, CA 92805",898880,Anaheim,33.828347,-117.904955,1789.0
852,"1801 E Katella Ave, Apt 1058, Anaheim, CA 92805",595000,Anaheim,33.804332,-117.890222,1095.0
853,"985 E Broadway, Anaheim, CA 92805",639888,Anaheim,33.836085,-117.902571,1185.0
854,"5468 E Suncrest Rd, Anaheim, CA 92807",1575000,Anaheim,33.849456,-117.796423,2740.0
855,"1022 1, Anaheim, CA 92805",771750,Anaheim,33.830063,-117.925925,1824.0
856,"1727 E Chelsea Dr, Anaheim, CA 92805",799999,Anaheim,33.833515,-117.891926,1328.0
857,"1964 W Glenoaks Ave Apt B, Anaheim, CA 92801",550000,Anaheim,33.842599,-117.950464,1204.0
858,"1495 W Cerritos Ave, Unit 1, Anaheim, CA 92802",595000,Anaheim,33.811516,-117.931565,989.0
859,"220 E South St, Anaheim, CA 92805",975000,Anaheim,33.826964,-117.908731,2635.0
860,"1135 W North St, Anaheim, CA 92801",1350000,Anaheim,33.84154,-117.931669,3000.0
861,"11622 Nearing Dr, Anaheim, CA 92804",720000,Anaheim,33.793815,-117.987752,1197.0
862,"1531 W Bushell St, Anaheim, CA 92805",894000,Anaheim,33.810666,-117.907436,1508.0
863,"951 N Ventura St, Anaheim, CA 92801",639000,Anaheim,33.845494,-117.963514,1297.0
864,"7941 E Horizon View Dr, Anaheim, CA 92808",675000,Anaheim,33.851964,-117.738985,1299.0
865,"2185 S Madrid St, Anaheim, CA 92802",750000,Anaheim,33.793159,-117.912351,1164.0
866,"2510 E Whidby Ln, Anaheim, CA 92806",935000,Anaheim,33.820181,-117.880066,2256.0
867,"2105 E Alden Ave, Anaheim, CA 92806",899000,Anaheim,33.834374,-117.888038,1580.0
868,"3050 W Ball Rd, Spc 84, Anaheim, CA 92804",150000,Anaheim,33.815971,-117.996597,1368.0
869,"387 S Henning Way, Anaheim, CA 92807",2750000,Anaheim,33.848089,-117.773366,4991.0
870,"1801 E Katella Ave, Apt 2014, Anaheim, CA 92805",499980,Anaheim,33.804332,-117.890222,710.0
871,"8480 E Donnybrook Cir, Anaheim, CA 92808",699000,Anaheim,33.867902,-117.737632,1171.0
872,"645 S Hacienda St, Anaheim, CA 92804",749000,Anaheim,33.823283,-117.947859,1349.0
873,"590 S Londerry Ln, Anaheim, CA 92807",1250000,Anaheim,33.841147,-117.807145,2461.0
874,"4585 E Ardmore St, Anaheim, CA 92807",599999,Anaheim,33.838921,-117.812434,2023.0
875,"582 S Olive St, Anaheim, CA 92805",850000,Anaheim,33.83045,-117.907955,2056.0
876,"2675 W Meadowview Ln, Anaheim, CA 92804",630000,Anaheim,33.816583,-117.9772,1250.0
877,"1201 S Sunburst Way, Anaheim, CA 92806",1195000,Anaheim,33.817838,-117.8815,3581.0
878,"9652 Canton Ave, Anaheim, CA 92804",799000,Anaheim,33.804495,-117.964587,1288.0
879,"1635 W Lincoln Ave, Unit 104, Anaheim, CA 92801",769990,Anaheim,33.832819,-117.937449,1799.0
880,"1471 S Walnut St, Unit 58, Anaheim, CA 92802",725000,Anaheim,33.811529,-117.929528,1000.0
881,"537 S Elder St, Anaheim, CA 92805",795000,Anaheim,33.834019,-117.893687,1390.0
882,"320 N Park Vista St, Unit 92, Anaheim, CA 92806",229000,Anaheim,33.842922,-117.863648,2160.0
883,"988 S Creekview Ln, Anaheim, CA 92808",1378000,Anaheim,33.851225,-117.751303,2641.0
884,"525 N Gilbert St, Spc 85, Anaheim, CA 92801",229900,Anaheim,33.839517,-117.969219,1416.0
885,"825 W La Palma Ave, Spc 41, Anaheim, CA 92801",95000,Anaheim,33.848144,-117.928838,620.0
886,"1150 S State College Blvd, Anaheim, CA 92806",1540000,Anaheim,33.819739,-117.888963,3900.0
887,"8459 E Amberwood St, Anaheim, CA 92808",759000,Anaheim,33.869312,-117.739852,1379.0
888,"9712 Guinida Ln, Anaheim, CA 92804",800000,Anaheim,33.814193,-117.963752,1858.0
889,"1505 W Wakefield Ave, Anaheim, CA 92802",999999,Anaheim,33.799464,-117.933055,2351.0
890,"1211 E Oak St, Anaheim, CA 92805",649999,Anaheim,33.837454,-117.901839,813.0
891,"1376 N Mako Ln, Anaheim, CA 92801",634950,Anaheim,33.85133,-117.948051,1111.0
892,"817 S Anaheim Blvd, Unit 104, Anaheim, CA 92805",700000,Anaheim,33.825975,-117.910925,1516.0
893,"514 E Adele St, Anaheim, CA 92805",899900,Anaheim,33.839833,-117.909216,1852.0
894,"595 S Paseo Carmel, Anaheim, CA 92807",1399000,Anaheim,33.841052,-117.791728,3190.0
895,"28 Walnut Via, Anaheim, CA 92801",85000,Anaheim,33.861429,-117.914126,1152.0
896,"305 N Coolidge Ave, Anaheim, CA 92801",725000,Anaheim,33.834867,-117.98592,1406.0
897,"4855 E Mckay Cir, Anaheim, CA 92807",870000,Anaheim,33.854968,-117.811536,1783.0
898,"1250 S Brookhurst St, Unit 2063, Anaheim, CA 92804",499000,Anaheim,33.815923,-117.957011,1172.0
899,"1201 E Mara Pl, Anaheim, CA 92805",655000,Anaheim,33.82373,-117.897519,1220.0
900,"2555 W Heffron Dr, Anaheim, CA 92804",799000,Anaheim,33.819329,-117.974369,1125.0
901,"7460 E Stone Creek Ln, Anaheim, CA 92808",1498888,Anaheim,33.851978,-117.762733,3154.0
902,"3537 W Greentree Cir, Unit A, Anaheim, CA 92804",599898,Anaheim,33.812742,-118.011481,1026.0
903,"3076 W Glen Holly Dr, Anaheim, CA 92804",779999,Anaheim,33.818232,-117.997233,1486.0
904,"2454 S Loom Ct, Anaheim, CA 92802",698000,Anaheim,33.79185,-117.893305,1312.0
905,"1860 W Glenoaks Ave Apt E, Anaheim, CA 92801",450000,Anaheim,33.842493,-117.947593,876.0
906,"1653 S Pounders Ln, Anaheim, CA 92804",798888,Anaheim,33.806148,-117.944764,1781.0
907,"6235 E Twin Peak Cir, Anaheim, CA 92807",848888,Anaheim,33.831907,-117.776217,1464.0
908,"958 W Lamark Ln, Anaheim, CA 92802",599999,Anaheim,33.796878,-117.922244,1144.0
909,"519 S Citadell Ln, Anaheim, CA 92806",975000,Anaheim,33.835659,-117.885018,2125.0
910,"219 W Sirius Ave, Anaheim, CA 92802",770000,Anaheim,33.791342,-117.908934,1292.0
911,"278 N Wilshire Ave, Unit B6, Anaheim, CA 92801",374000,Anaheim,33.834532,-117.932869,682.0
912,"235 S Beach Blvd, Spc 72, Anaheim, CA 92804",310000,Anaheim,33.826968,-117.997062,1248.0
913,"427 N Deerfield St, Anaheim, CA 92807",810000,Anaheim,33.852373,-117.82165,1502.0
914,"182 N Avenida Cienega, Anaheim, CA 92807",926000,Anaheim,33.857437,-117.776138,1574.0
915,"2251 W Crestwood Ln, Anaheim, CA 92804",789900,Anaheim,33.806617,-117.961457,1508.0
916,"862 S Boulder Pl, Anaheim, CA 92808",680000,Anaheim,33.857739,-117.727872,1265.0
917,"520 S Anaheim Blvd, Unit 1, Anaheim, CA 92805",749900,Anaheim,33.830356,-117.912008,1598.0
918,"781 S Mosaic St, Anaheim, CA 92805",810000,Anaheim,33.829021,-117.903366,1695.0
919,"608 N Tudor Pl, Anaheim, CA 92801",1299000,Anaheim,33.83848,-117.930982,2721.0
920,"1014 S Gibraltar Ave, Anaheim, CA 92808",520000,Anaheim,33.850372,-117.739626,865.0
921,"1801 E Katella Ave, Apt 2133, Anaheim, CA 92805",569900,Anaheim,33.804332,-117.890222,1095.0
922,"3112 W Olinda Ln, Anaheim, CA 92804",724995,Anaheim,33.827105,-117.999011,1180.0
923,"6124 E Garnet Cir, Anaheim, CA 92807",700000,Anaheim,33.835855,-117.775162,1472.0
924,"837 S Sylvan St, Anaheim, CA 92804",840000,Anaheim,33.819279,-117.979021,1237.0
925,"1956 W Blue Violet Ct, Anaheim, CA 92801",720000,Anaheim,33.833768,-117.950765,1363.0
926,"1623 W Mells Ln, Anaheim, CA 92802",1119000,Anaheim,33.809931,-117.938208,2568.0
927,"503 S Casita St, Anaheim, CA 92805",675000,Anaheim,33.832437,-117.905991,1390.0
928,"2709 E Mardi Gras Ave, Anaheim, CA 92806",978888,Anaheim,33.843525,-117.872937,2175.0
929,"1886 N Garland Ln, Anaheim, CA 92807",858000,Anaheim,33.870839,-117.808298,2007.0
930,"2022 W Victoria Ave, Anaheim, CA 92804",699900,Anaheim,33.829414,-117.953056,1497.0
931,"5815 E La Palma Ave, Unit 239, Anaheim, CA 92807",205000,Anaheim,33.861305,-117.78196,1440.0
932,"7401 E Calle Granada, Anaheim, CA 92808",927000,Anaheim,33.862406,-117.771683,2174.0
933,"855 S Taos Way, Anaheim, CA 92808",649995,Anaheim,33.857739,-117.727872,1046.0
934,"951 E Mason Ln, Unit 78, Anaheim, CA 92805",869700,Anaheim,33.805531,-117.896127,1821.0
935,"6572 E Via, Arboles, Anaheim, CA 92807",1149000,Anaheim,33.849033,-117.764823,2048.0
936,"1762 W Chateau Ave, Anaheim, CA 92804",925000,Anaheim,33.820713,-117.944309,1723.0
937,"1616 S Euclid St, Spc 54, Anaheim, CA 92802",219990,Anaheim,33.808274,-117.939416,1456.0
938,"2955 W Lincoln Ave, Unit 6, Anaheim, CA 92801",824672,Anaheim,33.832287,-117.991509,1875.0
939,"5648 E Vis, Del Cerro, Anaheim, CA 92807",688000,Anaheim,33.845735,-117.790813,1116.0
940,"512 S Hollydale Ln, Anaheim, CA 92808",659000,Anaheim,33.862712,-117.740092,1374.0
941,"140 S Pueblo Pl, Anaheim, CA 92807",1275000,Anaheim,33.854556,-117.774446,2449.0
942,"9852 Harle Ave, Anaheim, CA 92804",799900,Anaheim,33.809396,-117.961269,1141.0
943,"624 S Hilda St, Anaheim, CA 92806",813000,Anaheim,33.833506,-117.877456,1498.0
944,"771 S Circulo Miro, Anaheim, CA 92807",829888,Anaheim,33.836722,-117.760299,1928.0
945,"214 S Raspberry Ln, Anaheim, CA 92808",853000,Anaheim,33.862972,-117.752906,1310.0
946,"3202 W Cabot Dr, Anaheim, CA 92804",1495000,Anaheim,33.830396,-118.002493,4587.0
947,"903 S Gaymont St, Anaheim, CA 92804",999090,Anaheim,33.819097,-117.990361,2345.0
948,"1527 W Dogwood Ave, Anaheim, CA 92801",775000,Anaheim,33.846499,-117.939605,1287.0
949,"704 S Loara St, Anaheim, CA 92802",799888,Anaheim,33.823008,-117.936829,1410.0
950,"997 S Dylan Way, Anaheim, CA 92808",1150000,Anaheim,33.852667,-117.745758,1709.0
951,"1089 S Country Glen Way, Anaheim, CA 92808",590000,Anaheim,33.852901,-117.724861,1046.0
952,"7747 E Portofino Ave, Anaheim, CA 92808",739000,Anaheim,33.850372,-117.739626,1363.0
953,"2505 W Chain Ave, Anaheim, CA 92804",879990,Anaheim,33.831436,-117.971841,1760.0
954,"210 E Valencia Ave, Anaheim, CA 92805",1150000,Anaheim,33.825183,-117.908753,2100.0
955,"422 S Ohio St, Anaheim, CA 92805",789900,Anaheim,33.829083,-117.922627,1216.0
956,"2040 W 2040 Broadway, Anaheim, CA 92804",1374999,Anaheim,33.828613,-117.95404,3137.0
957,"5000 E Greensboro Ln, Anaheim, CA 92807",1199999,Anaheim,33.842008,-117.807724,1937.0
958,"905 S Lake Summit Dr, Anaheim, CA 92807",829900,Anaheim,33.841397,-117.747086,1766.0
959,"1176 S Country Glen Way, Anaheim, CA 92808",745000,Anaheim,33.852901,-117.724861,1248.0
960,"123 S Melrose St, Anaheim, CA 92805",949900,Anaheim,33.835658,-117.909037,2128.0
961,"3050 W Ball Rd, Spc 44, Anaheim, CA 92804",219000,Anaheim,33.81387,-117.996634,1512.0
962,"1224 Hinsdale Pl N, Anaheim, CA 92807",849999,Anaheim,33.862924,-117.778527,1825.0
963,"850 Daisy Ave, Long Beach, CA 90813",1600000,Long Beach,33.777481,-118.199099,2684.0
964,"1325 Stanley Ave, Long Beach, CA 90804",2000000,Long Beach,33.783155,-118.162521,3904.0
965,"2959 Chestnut Ave, Long Beach, CA 90806",615000,Long Beach,33.810944,-118.196192,1100.0
966,"100 Loma Ave, Unit 304, Long Beach, CA 90803",675000,Long Beach,33.762236,-118.150202,1124.0
967,"5250 E Appian Way, Long Beach, CA 90803",2399000,Long Beach,33.765757,-118.129699,3293.0
968,"365 Coronado Ave, Long Beach, CA 90814",1987000,Long Beach,33.770437,-118.153817,2743.0
969,"2942 E 63rd St, Long Beach, CA 90805",780000,Long Beach,33.868975,-118.158009,1206.0
970,"248 E 69th Way, Long Beach, CA 90805",699900,Long Beach,33.879926,-118.198477,1012.0
971,"1100 E 3rd St, Apt 105, Long Beach, CA 90802",899000,Long Beach,33.770002,-118.177857,2277.0
972,"1720 Cerritos Ave, Long Beach, CA 90813",2300000,Long Beach,33.788532,-118.177105,6074.0
973,"1136 E Ridgewood St, Long Beach, CA 90807",675000,Long Beach,33.844955,-118.17843,1156.0
974,"129 Roycroft Ave, Long Beach, CA 90803",1950000,Long Beach,33.759934,-118.140154,2538.0
975,"3825 California Ave, Long Beach, CA 90807",1299000,Long Beach,33.827787,-118.180957,2284.0
976,"486 E Adair St, Long Beach, CA 90805",1450000,Long Beach,33.864054,-118.186301,2800.0
977,"3739 Lime Ave, Long Beach, CA 90807",1045000,Long Beach,33.825653,-118.18408,2777.0
978,"1069 E Ridgewood St, Long Beach, CA 90807",950000,Long Beach,33.844436,-118.18049,1833.0
979,"850 E Ocean Blvd, Unit 1011, Long Beach, CA 90802",1000000,Long Beach,33.765636,-118.182081,1542.0
980,"605 Redondo Ave, Unit 308, Long Beach, CA 90814",550000,Long Beach,33.773804,-118.152746,1111.0
981,"850 E Ocean Blvd, Unit 803, Long Beach, CA 90802",1119500,Long Beach,33.765636,-118.182081,1377.0
982,"3320 Marna Ave, Long Beach, CA 90808",1190000,Long Beach,33.816936,-118.075204,2300.0
983,"257 E 69th Way, Long Beach, CA 90805",650000,Long Beach,33.880373,-118.198096,1211.0
984,"4510 E Village Rd, Long Beach, CA 90808",1008000,Long Beach,33.834028,-118.139773,1944.0
985,"3551 Thornlake Ave, Long Beach, CA 90808",850000,Long Beach,33.821702,-118.071454,1773.0
986,"1035 E Appleton St, Apt 4, Long Beach, CA 90802",399000,Long Beach,33.769722,-118.179338,613.0
987,"3108 Lees Ave, Long Beach, CA 90808",1469000,Long Beach,33.812888,-118.097849,1130.0
988,"4160 Locust Ave, Long Beach, CA 90807",2999999,Long Beach,33.832625,-118.192187,4607.0
989,"5632 Campo Walk, Long Beach, CA 90803",1695000,Long Beach,33.75611,-118.124679,1240.0
990,"400 W Ocean Blvd, Unit 204, Long Beach, CA 90802",635000,Long Beach,33.766668,-118.196742,1040.0
991,"939 E Appleton St, Apt 6, Long Beach, CA 90802",385000,Long Beach,33.769922,-118.180866,675.0
992,"1836 E 55th St, Long Beach, CA 90805",720000,Long Beach,33.855788,-118.169654,1224.0
993,"6817 Lemon Ave, Long Beach, CA 90805",488750,Long Beach,33.87858,-118.179516,786.0
994,"416 Orange Ave, Apt 1, Long Beach, CA 90802",485000,Long Beach,33.772279,-118.175969,766.0
995,"1750 E Ocean Blvd, Unit 603, Long Beach, CA 90802",580000,Long Beach,33.76435,-118.171133,632.0
996,"382 Coronado Ave, Unit 207A, Long Beach, CA 90814",465000,Long Beach,33.771192,-118.153172,745.0
997,"3634 N Bellflower Blvd, Long Beach, CA 90808",899999,Long Beach,33.823969,-118.124732,1298.0
998,"430 E Esther St, Long Beach, CA 90813",1100000,Long Beach,33.788683,-118.187282,3200.0
999,"54 E Mountain View St, Long Beach, CA 90805",599000,Long Beach,33.851555,-118.194388,876.0
1000,"4338 Blackthorne Ave, Long Beach, CA 90808",1165000,Long Beach,33.837287,-118.140003,2582.0
1001,"335 Tile Ave, Long Beach, CA 90802",649000,Long Beach,33.770922,-118.174366,792.0
1002,"576 N Bellflower Blvd, Unit 217, Long Beach, CA 90814",448000,Long Beach,33.771608,-118.120013,693.0
1003,"139 E 57th St, Long Beach, CA 90805",680000,Long Beach,33.859061,-118.193954,1282.0
1004,"6736 E Wardlow Rd, Long Beach, CA 90808",720000,Long Beach,33.818542,-118.101337,1206.0
1005,"2725 N Studebaker Rd, Long Beach, CA 90815",939000,Long Beach,33.805958,-118.099662,1346.0
1006,"1576 W 23rd St, Long Beach, CA 90810",315000,Long Beach,33.798757,-118.213999,1464.0
1007,"2211 Farolito Ave, Long Beach, CA 90815",939000,Long Beach,33.796443,-118.110314,1807.0
1008,"1616 E Ocean Blvd, Unit 3, Long Beach, CA 90802",579999,Long Beach,33.764668,-118.172871,958.0
1009,"3684 Woodruff Ave, Long Beach, CA 90808",899000,Long Beach,33.824837,-118.116096,1170.0
1010,"1720 Newport Ave, Apt 5, Long Beach, CA 90804",350000,Long Beach,33.788546,-118.150764,560.0
1011,"2303 E Ocean Blvd, Long Beach, CA 90803",3095000,Long Beach,33.764038,-118.16459,2729.0
1012,"5610 E Anaheim Rd, Long Beach, CA 90815",1359000,Long Beach,33.779326,-118.123251,2138.0
1013,"175 E Pleasant St, Long Beach, CA 90805",748000,Long Beach,33.846254,-118.191888,1097.0
1014,"2343 E 17th St, Unit 116, Long Beach, CA 90804",425000,Long Beach,33.788396,-118.163724,842.0
1015,"1519 E Market St, Long Beach, CA 90805",659000,Long Beach,33.854635,-118.173871,1210.0
1016,"728 Cedar Ave, Apt 30, Long Beach, CA 90813",349900,Long Beach,33.776025,-118.194673,599.0
1017,"1310 E Ocean Blvd, Unit 305, Long Beach, CA 90802",825000,Long Beach,33.764931,-118.175569,1040.0
1018,"800 Pacific Ave, Apt 403, Long Beach, CA 90813",355000,Long Beach,33.776865,-118.193404,685.0
1019,"751 Saint Louis Ave, Long Beach, CA 90804",1125000,Long Beach,33.776401,-118.166884,2392.0
1020,"4201 Faculty Ave, Long Beach, CA 90808",899900,Long Beach,33.834449,-118.137649,1931.0
1021,"3595 Santa Fe Ave, Spc 39, Long Beach, CA 90810",505000,Long Beach,33.818314,-118.223114,1851.0
1022,"3595 Santa Fe Ave, Spc 15, Long Beach, CA 90810",100000,Long Beach,33.820369,-118.218059,1440.0
1023,"129 Quincy Ave, Long Beach, CA 90803",1800000,Long Beach,33.760225,-118.140833,2535.0
1024,"1491 Atlantic Ave, Long Beach, CA 90813",2700000,Long Beach,33.785497,-118.185381,6845.0
1025,"110 Termino Ave, Unit 104, Long Beach, CA 90803",839900,Long Beach,33.761428,-118.145592,1525.0
1026,"720 W 4th St, Unit 305, Long Beach, CA 90802",489000,Long Beach,33.77131,-118.200957,957.0
1027,"152 W Market St, Long Beach, CA 90805",1000000,Long Beach,33.853982,-118.199684,2433.0
1028,"6093 Avenida De Castillo, Long Beach, CA 90803",999900,Long Beach,33.772051,-118.112021,1728.0
1029,"834 Walnut Ave, Long Beach, CA 90813",1425000,Long Beach,33.777794,-118.171675,3993.0
1030,"1086 1128 Stanley Ave, Long Beach, CA 90804",6200000,Long Beach,33.780494,-118.161909,16208.0
1031,"5341 E Killdee St, Long Beach, CA 90808",840000,Long Beach,33.816876,-118.127804,1590.0
1032,"905 Gaviota Ave, Long Beach, CA 90813",3050000,Long Beach,33.77819,-118.171218,6902.0
1033,"811 Gardenia Ave, Long Beach, CA 90813",2400000,Long Beach,33.777439,-118.169042,6364.0
1034,"1819 Vuelta Grande Ave, Long Beach, CA 90815",950000,Long Beach,33.789383,-118.103093,1694.0
1035,"5961 E Walton St, Long Beach, CA 90815",1099000,Long Beach,33.803947,-118.115398,1633.0
1036,"5280 E El Prado Ave, Long Beach, CA 90815",995000,Long Beach,33.783995,-118.131024,2278.0
1037,"2032 E Bermuda St, Unit 202, Long Beach, CA 90814",720000,Long Beach,33.769618,-118.166806,1149.0
1038,"6115 Cherry Ave, Long Beach, CA 90805",1230000,Long Beach,33.86592,-118.168951,3272.0
1039,"1042 1050 Gaviota Ave, Long Beach, CA 90813",6800000,Long Beach,33.779761,-118.170582,16831.0
1040,"2145 Fashion Ave, Long Beach, CA 90810",649000,Long Beach,33.796169,-118.20923,1300.0
1041,"722 Maine Ave, Long Beach, CA 90813",2450000,Long Beach,33.775938,-118.200251,5386.0
1042,"820 Lime Ave, Long Beach, CA 90813",3000000,Long Beach,33.776997,-118.183305,8195.0
1043,"736 744 Olive Ave, Long Beach, CA 90813",4000000,Long Beach,33.776091,-118.182042,9679.0
1044,"2628 Maine Ave, Long Beach, CA 90806",789990,Long Beach,33.804971,-118.199915,1670.0
1045,"5150 Cedar Ave, Long Beach, CA 90805",425000,Long Beach,33.850195,-118.193498,986.0
1046,"4131 Cedar Ave, Long Beach, CA 90807",3249000,Long Beach,33.831326,-118.196899,4000.0
1047,"2652 2706 E 15th St, Long Beach, CA 90804",4600000,Long Beach,33.785965,-118.15996,7440.0
1048,"1260 E 4th St, Apt 3, Long Beach, CA 90802",389900,Long Beach,33.771424,-118.174762,655.0
1049,"335 Orange Ave, Long Beach, CA 90802",999000,Long Beach,33.771033,-118.176625,1980.0
1050,"436 Gaviota Ave, Long Beach, CA 90802",1385000,Long Beach,33.772455,-118.170635,2856.0
1051,"621 Cerritos Ave, Long Beach, CA 90802",2150000,Long Beach,33.774492,-118.178282,4680.0
1052,"441 Dawson Ave, Long Beach, CA 90814",2300000,Long Beach,33.77247,-118.165855,5237.0
1053,"1512 E Florida St, Long Beach, CA 90802",2500000,Long Beach,33.770596,-118.172833,5834.0
1054,"1049 E 5th St, Long Beach, CA 90802",3900000,Long Beach,33.77328,-118.178608,7607.0
1055,"2060 Lomina Ave, Long Beach, CA 90815",1299000,Long Beach,33.793391,-118.119389,1641.0
1056,"432 440 Walnut Ave, Long Beach, CA 90802",4000000,Long Beach,33.772442,-118.171673,9950.0
1057,"103 Ravenna Dr, Unit 14, Long Beach, CA 90803",775000,Long Beach,33.754637,-118.124187,1121.0
1058,"2838 E Mariquita St, Apt 8, Long Beach, CA 90803",385000,Long Beach,33.766776,-118.158086,617.0
1059,"525 E Seaside Way, Unit 2201, Long Beach, CA 90802",549000,Long Beach,33.765909,-118.185676,910.0
1060,"414 E Hill St, Long Beach, CA 90806",749900,Long Beach,33.796948,-118.187807,1122.0
1061,"2140 Charlemagne Ave, Long Beach, CA 90815",1350000,Long Beach,33.79523,-118.131034,1696.0
