,Address,Housing Price,City,Longitude,Latitude,SQ Ft,Housing Price/SQ Ft,Norm Price,dist_hospitals,dist_gym,dist_cemetary,dist_parks,dist_beaches,dist_shopping,dist_grocery,dist_resturant,dist_golf,dist_school
470,"609 S Vicki Ln, Anaheim, CA 92804",750000,Anaheim,33.824412,-117.984391,1964.0,381.87372708757636,0.1304978159382124,0.6103312908376941,0.5186192649937821,1.0629517099777082,3.3856315889011763,4.960862800870741,0.5052799298028318,0.5504653165040506,0.4592071620041756,1.0127709445210356,0.3138208403035891
471,"841 S Philadelphia St, Anaheim, CA 92805",1399999,Anaheim,33.825846,-117.908379,3012.0,464.80710491367864,0.16513805382861182,0.30851074823422187,0.585862545720062,0.5551594980513956,7.148887047800093,2.296997142820779,0.28418003426667154,0.28418003426667154,0.1984740829315506,0.5382137095060132,0.11641519672645788
472,"310 S Mohler Dr, Anaheim, CA 92808",2250000,Anaheim,33.858326,-117.760019,4035.0,557.6208178438661,0.20390518450227677,1.04093592932699,0.533815537211619,3.768368194843088,15.558438983001533,8.558395376684786,0.7662415855080835,1.0292326632252629,0.745108247494829,0.5416733391601796,0.41761552430474164
473,"2300 S Lewis St, Spc 79, Anaheim, CA 92802",154900,Anaheim,33.791593,-117.897023,1100.0,140.8181818181818,0.029811920201024224,0.29216373540577867,0.8093743189687874,0.2692057874955999,6.483450502495268,4.707093696538409,0.23001092919096752,0.8942078440226403,0.840624897809856,0.7758567259664204,0.4556367883204105
474,"320 N Park Vista St, Spc 161, Anaheim, CA 92806",130000,Anaheim,33.844316,-117.866372,1368.0,95.02923976608187,0.0106864500102365,1.4010121440036,0.5364242045434108,1.936415620533832,9.827725747666637,2.6489511178678224,0.43917274712027154,0.447649144301906,0.8454622949209853,0.8832396782227584,0.7430853208252205
475,"201 N Tustin Ave Apt A, Anaheim, CA 92807",445000,Anaheim,33.843712,-117.833651,786.0,566.1577608142494,0.2074709591409383,0.8385314747202082,0.09656479233426299,3.8168841467857764,11.360169641870977,4.454034873167423,0.1837584399755578,1.5701624884415355,0.717393267609348,0.9855884249433977,0.5860051020091406
476,"7670 E Eucalyptus Way, Anaheim, CA 92808",995000,Anaheim,33.863512,-117.762479,1786.0,557.110862262038,0.20369218241396073,0.9596943744752794,0.5866548488371411,4.106752666373072,15.595196334866165,8.421808855893591,0.6796411001881364,1.021937054816497,0.6637610482560513,0.7947517192292315,0.5216911276837609
477,"190 S Cobblestone Ln, Anaheim, CA 92807",4600000,Anaheim,33.844698,-117.812563,6701.0,686.4647067601851,0.2577216704549417,0.6528272248998152,0.7858400430439627,3.7422845270267824,12.444371868060317,5.626482761574548,0.6066224700655867,1.479558462130646,0.6394272738044071,1.26243692764977,0.5005821865983132
478,"640 S Aberdeen St, Anaheim, CA 92807",1300000,Anaheim,33.838243,-117.808072,2188.0,594.1499085923217,0.21916293025694478,1.1665219695385725,0.8404257217512636,3.240075970565123,12.467798906039588,5.972613421989905,1.113019077032572,1.4666319775931682,1.1422403111732018,1.467266249762261,0.8761489412055203
479,"125 N Belinda Cir, Anaheim, CA 92801",12500000,Anaheim,33.83375,-117.966043,75554.0,165.44458268258464,0.04009806079590012,0.5026537319840528,0.5611171203990941,0.1773435588830948,4.529225466725181,3.726273443869764,0.3816083765523306,0.6476616434997265,0.1517902711208173,0.12393302918847425,0.09227121933778956
480,"1169 S Pointe Premier, Anaheim, CA 92807",3500000,Anaheim,33.82671,-117.750839,7463.0,468.98030282728126,0.16688114656497707,1.8561316579119742,1.9134617046243816,1.8783919609413446,15.221499093318936,9.359066167126027,0.6174168549198596,0.6174168549198596,2.740329715914498,1.9801075437591305,0.6060539051968877
481,"940 S Jay Cir, Anaheim, CA 92808",1300000,Anaheim,33.844973,-117.74554,3118.0,416.93393200769725,0.14514202639670518,1.651011942259339,1.3707559972624954,3.1236599507207687,15.94047802633648,9.442315016809623,1.1847476699980855,1.1847476699980855,1.5203585321181134,1.295214011875116,0.2170993047140967
482,"146 S Seneca Cir, Unit 23, Anaheim, CA 92805",620000,Anaheim,33.832892,-117.922006,1298.0,477.65793528505395,0.17050568544838052,0.5465501068407598,0.43059571076111763,0.5723794205473658,6.931558888318668,1.962723326674833,0.23670322508895575,0.10703549147596361,0.12209379341000758,0.39481236234903044,0.18548483519482287
483,"1891 S Union St, Unit 112, Anaheim, CA 92805",749000,Anaheim,33.799927,-117.892335,1613.0,464.3521388716677,0.16494802018545843,0.7936857892801851,0.30087522179131404,0.366026018255229,6.955140467693152,4.192352676221636,0.4380754617353151,0.6525447278442353,0.3250629299049959,1.3194187109618856,0.7690909493804332
484,"1318 N Sunshine Way, Anaheim, CA 92806",1495000,Anaheim,33.854259,-117.877976,3820.0,391.3612565445026,0.13446063870022779,1.5299087353185015,0.5286206078600211,1.4785013131957276,9.160086993270815,1.8076870284659547,0.2830639071715438,0.7012592586511015,0.5802088954437791,0.6521644427397891,0.6150181146686275
485,"1900 W Glenoaks Ave Apt C, Anaheim, CA 92801",539000,Anaheim,33.842493,-117.947593,1339.0,402.5392083644511,0.13912952980680188,0.4011777469035858,0.7320626094607109,1.3954009261508886,5.518952488195014,2.5066318414782733,0.24680960671519273,0.24680960671519273,0.28662806878989716,1.250516819775527,0.45309662447736276
486,"2651 W Lincoln Ave, Unit 17, Anaheim, CA 92801",687000,Anaheim,33.832387,-117.978625,1535.0,447.557003257329,0.15793290144397742,1.044445965260889,0.7168402335205556,0.5579041806081655,3.802587990805078,4.416570416682464,0.273365600515632,0.10672800595041343,0.5825612812383828,0.6693494683319774,0.5108326826138325
487,"1213 E Adele St, Anaheim, CA 92805",792000,Anaheim,33.841383,-117.903074,1268.0,624.6056782334385,0.2318839255082855,0.3794918090297561,0.4655850770127195,0.21645471168343955,8.011783000155,1.2702930375530939,0.10008876967489402,0.10008876967489402,0.6074435600749927,0.7176348067193745,0.37575550715486117
488,"2300 S Lewis St, Spc 158, Anaheim, CA 92802",170000,Anaheim,33.79141,-117.894017,1300.0,130.76923076923077,0.025614598639920716,0.20470983270815452,0.7884636194175823,0.27156039031754226,6.640813342163286,4.7475983633130605,0.1587949843683194,0.7365269963592386,0.8548735802705844,0.732959519171407,0.6191407761376045
489,"505 S Reseda St, Anaheim, CA 92806",829900,Anaheim,33.836246,-117.888489,1411.0,588.1644223954642,0.21666286730058476,0.5325141796228968,0.19098102237207723,0.8187096523891496,8.485289395652632,1.9668524796655205,0.09085970880992512,0.09085970880992512,0.029889943388742443,0.35931413119633354,0.42163688557695433
490,"817 S Anaheim Blvd, Unit 106, Anaheim, CA 92805",724900,Anaheim,33.825975,-117.910925,1540.0,470.7142857142857,0.16760540959728312,0.3123963589885461,0.542700898462411,0.5084186595702129,7.044873481767985,2.291030808036597,0.35442936436149514,0.35442936436149514,0.16806126778900168,0.6176436857234168,0.26281621588940823
491,"861 861 1 2 S Lemon St, Anaheim, CA 92805",1339000,Anaheim,33.82407,-117.91269,2792.0,479.5845272206304,0.17131039887879246,0.24005288618403997,0.43205024080849486,0.6364741957945192,6.881740579142873,2.4292607380446105,0.2156937980519669,0.2156937980519669,0.1324694126163403,0.5906837809078664,0.274833954060918
492,"2437 W Glencrest Ave, Anaheim, CA 92801",839999,Anaheim,33.840595,-117.969612,1284.0,654.2048286604362,0.2442471215943637,0.42764772497646303,0.08758613318976421,0.5333996550526887,4.26478547582662,3.720975495103622,0.36110739209022163,0.7506517968072397,0.5274028091194756,0.397956660072774,0.1848564446722693
493,"1521 W Crone Ave, Anaheim, CA 92802",849999,Anaheim,33.822005,-117.933799,1684.0,504.75,0.181821703091309,0.5300177032733672,0.5553097846132585,1.4723129528538195,5.920059876231631,2.935865468498067,0.42989760335599003,0.6011185313183462,0.46859387580448447,1.3177318515042147,0.33984895941538557
494,"57 Maple Via, Anaheim, CA 92801",129000,Anaheim,33.862922,-117.912888,1050.0,122.85714285714286,0.022309818168309244,1.585136607314879,0.347213381294438,1.5468179037212642,7.0754420267808955,0.347213381294438,0.572267858805866,0.7194305665489846,0.2127228769409603,0.8701313647326295,1.2608216226983338
495,"4836 E Wasatch Dr, Anaheim, CA 92807",928000,Anaheim,33.851553,-117.811617,1591.0,583.2809553739786,0.21462310401361373,0.366922266735883,0.5914124536053137,4.073944198468894,12.724975874158616,5.616126238830822,0.25053992846625367,1.0663344986014076,0.2544521807537091,0.8072572555027371,0.203980078617477
496,"531 N Harcourt St, Anaheim, CA 92801",790000,Anaheim,33.838724,-117.974033,1267.0,623.5201262825573,0.23143050399325008,0.5952218117615702,0.21533014253057348,0.49815598848689696,4.026552890847526,4.004235579235583,0.0857154639247281,0.5185225870622993,0.5061951172709152,0.4530518360498048,0.26162776814480276
497,"260 S Seneca Cir, Unit 38, Anaheim, CA 92805",585000,Anaheim,33.832892,-117.922006,1217.0,480.69022185702545,0.1717722337424245,0.5465501068407598,0.43059571076111763,0.5723794205473658,6.931558888318668,1.962723326674833,0.23670322508895575,0.10703549147596361,0.12209379341000758,0.39481236234903044,0.18548483519482287
498,"1139 W North St, Anaheim, CA 92801",2700000,Anaheim,33.841919,-117.931714,6700.0,402.9850746268657,0.13931576258547548,0.41576878248514454,0.5425226904636314,1.2769860773164388,6.433017094257607,1.7724262575766685,0.3362605848797022,0.3362605848797022,0.05154258234131412,1.0468728560220508,0.2814120527106007
499,"3574 W Carrotwood Ct, Unit F, Anaheim, CA 92804",532000,Anaheim,33.812742,-118.011481,968.0,549.5867768595041,0.2005494657529082,1.2877688124217024,0.5725684838776582,2.6848973041132815,1.8763126062153272,5.318387429141983,0.291182142001043,0.14724640374844786,0.8360291712786767,0.7343862608795897,0.1663033001980023
500,"6142 E San Lorenzo Ln, Anaheim, CA 92807",995000,Anaheim,33.85504,-117.774178,1791.0,555.5555555555555,0.2030425501944935,0.7452743005040944,0.2336952751221284,3.5159214435062123,14.729273612360911,7.749434088580948,0.824680251258914,0.6620299547829634,0.8572324882477349,0.4919945524769044,0.4285259069067682
501,"3062 W Teranimar Dr, Anaheim, CA 92804",950000,Anaheim,33.819709,-117.996587,1614.0,588.5997521685254,0.2168446991190262,0.415377939572734,0.28348930289259283,1.830867014160907,2.6691067041019045,5.731980714750475,0.3457573417807842,0.39797627092839605,0.17328701823867995,0.8719570399637014,0.4595895316384573
502,"1150 N Brantford St, Anaheim, CA 92805",1150000,Anaheim,33.849943,-117.892445,2706.0,424.98152254249817,0.14850340462435396,0.8083674668120671,0.40920961724298505,0.6361169492965882,8.418416317103498,1.1380492539786755,0.12257406166265641,0.2575793458292941,0.6682439254462923,0.6150577505634548,0.25948704634807707
503,"823 S Anaheim Blvd, Unit 103, Anaheim, CA 92805",775000,Anaheim,33.825494,-117.910752,1583.0,489.5767530006317,0.17548402700231605,0.27793417668444104,0.5307871994336536,0.5426061152900099,7.030266086278778,2.3236503592907165,0.32473884033304484,0.3257646015879225,0.13454533194063115,0.5849275714010164,0.2514952029520587
504,"7322 Braeburn St, Anaheim, CA 92801",875000,Anaheim,33.854343,-117.97018,1605.0,545.171339563863,0.19870519264694758,0.4075158700044207,0.5735699028506035,1.4812626387957168,4.108630301488107,3.5418256747084453,0.4742797621470485,0.06904265619191227,1.4742967684300654,1.3348879000707652,0.8232389175923617
505,"2614 W Meadowview Ln, Anaheim, CA 92804",630000,Anaheim,33.816275,-117.976092,1250.0,504.0,0.1815084374424375,1.25790702572275,0.10171504247606401,1.2158315401818758,3.855787224458709,4.867671173559362,0.09925418854141374,0.14875280956185333,0.5568029130496887,0.6901021714425759,0.1519861103495286
506,"597 E Chartres St, Anaheim, CA 92805",1025000,Anaheim,33.838783,-117.907958,2083.0,492.07873259721555,0.17652907268469883,0.40063614226824107,0.5369695218573248,0.4462675505413194,7.779524430678057,1.4061381885034723,0.3293241419731819,0.3293241419731819,0.49881537615942456,0.5135468594717227,0.3971166124347633
507,"3050 W Ball Rd, Spc 31, Anaheim, CA 92804",220000,Anaheim,33.815005,-117.997548,1488.0,147.8494623655914,0.03274879841846669,0.7438730716514668,0.31997933015639307,2.055389526143863,2.634595312891761,5.940244684198908,0.27085653523685765,0.29876668440775367,0.3398328701141812,0.5449693843224444,0.6946021737991075
508,"314 N Philadelphia St, Anaheim, CA 92805",599000,Anaheim,33.838926,-117.911711,1008.0,594.2460317460317,0.2192030796997695,0.3082355737992774,0.42345055890665906,0.3889814148556756,7.593530442098418,1.404950868339723,0.21216499466342897,0.171068573374881,0.3487857087833256,0.35577528791349033,0.27141628082096714
509,"3050 W Ball Rd, Spc 10, Anaheim, CA 92804",160000,Anaheim,33.816831,-117.99723,1100.0,145.45454545454547,0.03174847148495717,0.6169849865103408,0.31642692693792046,1.967363851769857,2.6400340701650222,5.860831991233741,0.2529652832167419,0.29751354680009473,0.24056425506573345,0.6708133580786774,0.5953086313610328
510,"1368 S Country Glen Way, Anaheim, CA 92808",765000,Anaheim,33.852901,-117.724861,1248.0,612.9807692307693,0.22702834595922763,1.687487582684533,1.6237260305278496,4.217159055760161,17.247926326711482,10.58894081335609,1.0551019311145304,1.0551019311145304,1.5234035217792214,2.3787262223436993,0.36748044479668934
511,"1121 N Anaheim Blvd, Anaheim, CA 92801",849000,Anaheim,33.848215,-117.919986,1376.0,617.0058139534884,0.22870955695496023,0.7834650991192839,0.7504219114722216,1.1250003353644613,6.937559094413202,0.9898180121874429,0.26002549098625327,0.4262366093631938,0.26002549098625327,0.9524492831191215,0.3155783694659175
512,"134 S Magnolia Ave, Unit 12B, Anaheim, CA 92804",475000,Anaheim,33.830898,-117.974811,1042.0,455.8541266794626,0.1613985064474463,0.9730008287262146,0.7077746302047996,0.36400882153188935,3.9955952220479727,4.264245296678289,0.1348692549693758,0.13604926506457402,0.38953352128535995,0.5131220190697707,0.40904267712694026
513,"7589 E Vis, Del Sol, Anaheim, CA 92808",3490000,Anaheim,33.854998,-117.759852,6500.0,536.9230769230769,0.195259996182643,1.1562912331474673,0.5558222602366598,3.542875060300457,15.466576025376895,8.572791892709272,0.9467253388526659,1.1247122465945725,0.925123498279182,0.4074097976794585,0.43937053866070264
514,"953 S Salem St, Anaheim, CA 92802",799900,Anaheim,33.818493,-117.927794,1339.0,597.3861090365945,0.2205146508330159,0.790770331334192,0.8457056770942374,1.363292971949068,5.9835365254404325,3.007735125929167,0.7443011307699565,0.7444978443784509,0.12213979652804947,1.3267921350796525,0.3921898686664784
515,"1540 W Ball Rd, Anaheim, CA 92802",1100000,Anaheim,33.8168,-117.935378,2112.0,520.8333333333334,0.18853951089488682,0.3391528408452109,0.4259923684771823,1.757806297442204,5.594266348723107,3.294659971626372,0.3345979697272769,0.3311789552857372,0.3306700441107669,1.1884506151463592,0.05972558630292909
516,"143 S Larkwood St, Anaheim, CA 92808",790000,Anaheim,33.867193,-117.740582,1028.0,768.4824902723735,0.29197947601620605,0.39175703148365415,0.48631329584112826,4.644271070464389,16.83124674445689,9.691110744875589,0.39146091635447394,0.2625148342960307,0.21732513086025682,1.792071015635745,1.1154480667884348
517,"823 S Anaheim Blvd, Unit 101, Anaheim, CA 92805",779000,Anaheim,33.825494,-117.910752,1583.0,492.1036007580543,0.1765394598054207,0.27793417668444104,0.5307871994336536,0.5426061152900099,7.030266086278778,2.3236503592907165,0.32473884033304484,0.3257646015879225,0.13454533194063115,0.5849275714010164,0.2514952029520587
518,"1250 S Brookhurst St, Unit 2070, Anaheim, CA 92804",429900,Anaheim,33.815923,-117.957011,912.0,471.38157894736844,0.1678841296608154,0.8700163511576627,0.3297333436469081,1.3551153350050245,4.77385275245348,4.068809584743538,0.19669810111000874,0.1516940524479094,0.9511567460099956,0.11527216517265233,0.27764175440572675
519,"393 N Ironpike Cir, Unit 21, Anaheim, CA 92807",525000,Anaheim,33.845248,-117.83178,847.0,619.8347107438017,0.2298911518731042,0.8533441150059066,0.1813004200627542,3.926797856646812,11.507197105731937,4.534961552617,0.040033689534566694,1.5645617401804048,0.6553447481585872,1.038641106825341,0.6183877313251008
520,"6117 E Baja Dr, Anaheim, CA 92807",1275000,Anaheim,33.853959,-117.77762,2328.0,547.680412371134,0.19975320107499506,0.6810188835036205,0.4449672691577817,3.463642533282637,14.519115071831948,7.554875566031766,0.6189362309859935,0.590639013261705,0.7239769202960161,0.6639876156308572,0.6399013781646588
521,"110 S Strada Pl, Anaheim, CA 92807",2995000,Anaheim,33.84509,-117.818244,5520.0,542.572463768116,0.19761967463029276,0.5142536363427552,0.613570368794959,3.986468887387117,12.172154250081038,5.300264888033048,0.5764794990298798,1.6304815850719907,0.6191496402746707,1.2392795663077976,0.7076891245036142
522,"495 S Paseo Bandera, Anaheim, CA 92807",1379888,Anaheim,33.843769,-117.791427,2901.0,475.6594277835229,0.16967093378272494,0.8297289192279164,0.5752245897753682,3.011510074776309,13.494943205376416,6.835735554258452,0.4219555437168439,0.46808337979709835,1.0238694354899038,1.567050887762793,0.1603043602281145
523,"2109 W Juno Ave, Anaheim, CA 92804",1399000,Anaheim,33.818992,-117.955024,2526.0,553.840063341251,0.20232601048562932,0.7215835518956436,0.2783287387474575,1.2476871181097002,5.013548507777771,3.836504453766641,0.20561782174908907,0.29089642400634835,0.821155500660421,0.12519991068382727,0.2179994659656637
524,"212 E Charlotte Ave, Anaheim, CA 92805",822000,Anaheim,33.820749,-117.907185,1593.0,516.0075329566855,0.1865238342464669,0.16137104238062558,0.33320936858381406,0.9088070269571387,6.977365140056509,2.6498734131929913,0.07627563400499218,0.07627563400499218,0.2704793699390582,0.2018856220309022,0.33595406885276724
525,"46 Pine Via, Anaheim, CA 92801",97900,Anaheim,33.864737,-117.912937,1040.0,94.13461538461539,0.010312776560428012,1.668326751192375,0.3908505241442757,1.658999843866996,7.051431706588481,0.44966568694685255,0.6051714511803329,0.8415457380980351,0.33647444421836104,0.8337643990521691,1.3515797559278118
526,"541 N Fairhaven St, Anaheim, CA 92801",730000,Anaheim,33.839113,-117.942737,1297.0,562.8373168851195,0.20608405111160455,0.2382355055947734,0.8513010571342277,1.5673477133341958,5.813375731448204,2.3889545673932946,0.07497139359205857,0.1478167506791048,0.15285503379095322,1.4481259194019527,0.09344323382725513
527,"130 S Lakeview Ave, Anaheim, CA 92807",3588888,Anaheim,33.848793,-117.812031,7593.0,472.6574476491505,0.1684170441098002,0.4683952649837509,0.7714591088999331,3.938051744072351,12.608939217102959,5.61356890722699,0.36123250886199293,1.2533367482129836,0.38496546365920215,0.9878673935962058,0.26868856075793657
528,"3402 W Danbrook Ave, Anaheim, CA 92804",1399999,Anaheim,33.827522,-118.008529,3150.0,444.44412698412697,0.15663269183653566,0.3520236386453434,0.8173706795506305,1.9784192655420954,2.05245936257855,6.133188928646465,0.2115884284668803,0.18131886901193844,0.2472403682273367,1.459584414641213,0.07325782645074227
529,"3400 W Thornton Ave, Anaheim, CA 92804",692000,Anaheim,33.812933,-118.008068,823.0,840.8262454434994,0.32219656055685136,1.1539724813108434,0.4020454578606904,2.6371609758210792,2.0635362783571702,5.454303456327172,0.29728369396808324,0.30722628486005493,0.8452299435372591,0.5806104963718977,0.1827805491736735
530,"1879 N Cymbal Pl, Anaheim, CA 92807",849900,Anaheim,33.871376,-117.806772,1605.0,529.5327102803739,0.1921731321803434,0.40766566563998136,0.5514217893790869,5.090233551710766,13.080315745037039,5.929422781602397,0.38434418328279635,0.38434418328279635,1.1710116870627425,0.7583481067185389,1.341609556954258
531,"1583 E Lincoln Ave, Anaheim, CA 92805",695000,Anaheim,33.839779,-117.895967,1628.0,426.9041769041769,0.1493064733792432,0.0925255893976381,0.26259450986488797,0.33216693592583363,8.321476905577473,1.528333285220073,0.1345286412169224,0.1345286412169224,0.3299596829367288,0.3229238288621527,0.21513542308259573
532,"4721 E Copa De Oro Dr, Anaheim, CA 92807",5500000,Anaheim,33.840424,-117.812403,10000.0,550.0,0.20072206390655642,0.9152861491407651,0.6332826898037409,3.5215492271501354,12.31373493920157,5.6951975864138396,0.8949346463687499,1.597097707406417,0.929742847647605,1.5294566671922543,0.7660508204825502
533,"3113 W Vallejo Dr, Anaheim, CA 92804",898000,Anaheim,33.826035,-117.998792,2077.0,432.3543572460279,0.1515829457542521,0.2255793714547457,0.5756702370797042,1.7804701897014172,2.5783652100984873,5.654013513495539,0.4649562080910579,0.4922031082818195,0.3944934274875406,1.283327231352638,0.49835346254136453
534,"634 S Sonya Pl, Anaheim, CA 92802",987000,Anaheim,33.824189,-117.935859,1695.0,582.3008849557522,0.21421374081960642,0.5019065607641048,0.4978368310463783,1.5054767110913376,5.956739185169619,2.8678696073999115,0.4227648120237183,0.5236662178506777,0.34275304480419344,1.2514135075600292,0.38894513013307636
535,"507 N Plantation Pl, Anaheim, CA 92806",889000,Anaheim,33.846079,-117.872496,2173.0,409.1118269673263,0.14187483064868803,1.5035530635453405,0.6393288970658932,1.5949816678853992,9.595632784172265,2.277302212211197,0.48539252509399655,0.5671699741460067,0.7690624962384778,0.8200589460638504,0.38999234645285497
536,"1828 N Cymbal Way, Anaheim, CA 92807",889000,Anaheim,33.868916,-117.806295,1680.0,529.1666666666666,0.1920202403267924,0.5794078840056545,0.3999461165164371,4.9438459711884875,13.11770948898932,5.93508603468824,0.2144578552403068,0.2144578552403068,1.0480786351536,0.657748017653966,1.1705205621178785
537,"866 S Chantilly St, Anaheim, CA 92806",700000,Anaheim,33.828678,-117.874959,1974.0,354.6099290780142,0.11911006743932293,1.2612395081125816,0.6505163277341011,1.7552666304713747,8.799305079044835,2.8665946202361217,0.6350514064356545,0.683095586099582,0.7460247616728323,0.7333999389751665,0.3646726935819773
538,"10951 Rustic Ln, Anaheim, CA 92804",950000,Anaheim,33.803445,-117.973759,1288.0,737.5776397515529,0.2790709052806304,0.4618088144865477,0.71741716313405,1.3255837914615693,3.5442898401626777,5.356037611394142,0.16001287077277873,0.4179243092124388,0.4179243092124388,0.78673013895422,0.6545065357297041
539,"704 N Anna Dr, Anaheim, CA 92805",1850000,Anaheim,33.846371,-117.897198,3830.0,483.02872062663187,0.1727489955216858,0.5148495462808246,0.4988228991663821,0.27128755043362973,8.223074137999584,1.108051026081208,0.4114099333068766,0.42796604234520935,0.5513543233858498,0.5228436769022954,0.1928621497943959
540,"2149 W York Cir, Anaheim, CA 92804",586888,Anaheim,33.818457,-117.957209,1343.0,436.9977661950856,0.15352243977745517,0.8493756812182259,0.25944157809313895,1.2013288652882228,4.915266331194013,3.9506366260869337,0.07680757668722706,0.1667169680740618,0.9460912894382414,0.10079424843372914,0.30482967519483184
541,"1017 N Gilbert St, Anaheim, CA 92801",710000,Anaheim,33.846332,-117.96813,1291.0,549.9612703330752,0.20070588700757003,0.16991108305431413,0.4249745625378674,0.9285947770117647,4.3313603298419014,3.521435170950087,0.1538651965251015,0.5050791465070357,0.9193551275353858,0.7744901634292513,0.2590709938191078
542,"3504 W Mungall Dr, Anaheim, CA 92804",1600000,Anaheim,33.823063,-118.011171,3710.0,431.26684636118597,0.15112870601692563,0.5801593439621281,0.654573216144862,2.3056125524766022,1.843970416208381,5.897830459034752,0.13225592224361643,0.16743336420239052,0.12553980132673564,1.2411597628365723,0.271030008987165
543,"5901 E Cowboy Cir, Anaheim, CA 92807",1499950,Anaheim,33.841161,-117.78539,3092.0,485.1067270375162,0.17361695289057225,0.5058130730018378,0.5611981215395978,2.7120073016321147,13.73189713684744,7.20776226730599,0.6988161708855221,0.19085380132253096,1.2505597445735632,1.3476966103466492,0.3583162192256703
544,"703 N Janss St, Anaheim, CA 92805",808000,Anaheim,33.840413,-117.923907,1488.0,543.010752688172,0.19780274244753882,0.7522247955956936,0.7310258596931322,0.8395353462235353,6.886974016707149,1.5557888586964617,0.47935611887262086,0.47935611887262086,0.41189860429240105,0.6117829159563395,0.41746269174187844
545,"1650 S Pounders Ln, Anaheim, CA 92804",899999,Anaheim,33.806181,-117.944236,1521.0,591.715318869165,0.218146032484464,0.6317771048320658,0.42962351123161335,1.258445966648113,4.714224531199151,4.18082603282195,0.28515344579126345,0.18540506935321027,0.8707659143410634,1.0274550749633617,0.3396153000706835
546,"3311 W Lincoln Ave, Apt 1, Anaheim, CA 92801",665000,Anaheim,33.83228,-118.005848,1604.0,414.5885286783042,0.14416238066890827,0.387426291536306,0.5538548812126303,1.6368535532900832,2.3031724925514276,5.877696259872463,0.23622560290760744,0.09959185641092685,0.2929698791320351,1.624490743289093,0.3342524523250855
547,"1232 W La Palma Ave, Anaheim, CA 92801",649900,Anaheim,33.846904,-117.934522,912.0,712.609649122807,0.26864208690018815,0.07853265517023753,0.17336942913256753,1.5963703181224445,6.187886707319317,1.7008578731506172,0.10873346490598662,0.10873346490598662,0.4230973867730324,1.3683819756680036,0.3266154554898693
548,"28 Pine Via, Anaheim, CA 92801",237500,Anaheim,33.863835,-117.914037,1620.0,146.60493827160494,0.03222897622134817,1.579642429135644,0.3504185538259649,1.6339238823165465,6.999396917548738,0.4382259497334355,0.5241106039251797,0.7986732592257442,0.2925825506122487,0.9113659818398149,1.3520571102387475
549,"923 E Weaver Ln, Anaheim, CA 92802",719900,Anaheim,33.793036,-117.893793,1356.0,530.8997050147493,0.1927441088369675,0.31557484539908565,0.7174638687363128,0.17203917452613152,6.692673065652228,4.639789517599604,0.047380005256244286,0.6876937366587791,0.7453556802310579,0.8442120576779643,0.6014659950080296
550,"5815 E La Palma Ave, Spc 119, Anaheim, CA 92807",225000,Anaheim,33.861581,-117.782404,1300.0,173.07692307692307,0.04328599421728762,1.261073905129776,0.36766797184035005,4.027096207479872,14.52558798193903,7.272817172569594,0.316830327480894,0.3223558936249819,0.320678317192392,0.735151012262607,0.9345557325508764
551,"10601 Patricia Dr, Anaheim, CA 92804",969000,Anaheim,33.808779,-117.966931,1214.0,798.1878088962109,0.30438701723438094,0.585394760468835,0.5471022059512658,1.6648407305624775,4.055630205114347,4.818680187399855,0.07598593247324734,0.41790591544045047,0.41790591544045047,0.8631306587777459,0.21502098192598743
552,"1550 W Minerva Ave, Anaheim, CA 92802",800000,Anaheim,33.819354,-117.935002,1774.0,450.9582863585118,0.1593535749875611,0.43099132855506844,0.4349830415592177,1.6319194533679138,5.737978310477343,3.1292327288719117,0.32634513845140384,0.42738927881354516,0.3368663564343699,1.217029295930435,0.15911343649016535
553,"2625 E Ward Ter, Anaheim, CA 92806",1010000,Anaheim,33.840321,-117.874953,2361.0,427.78483693350273,0.14967431409327245,1.2823097906658305,0.3709786468793244,1.455201967133536,9.268665130283042,2.3428963532773555,0.24852226693663687,0.2875256679734137,0.7165109537051944,0.901660475167809,0.42759885290974453
554,"1400 S Sunkist St, Spc 137, Anaheim, CA 92806",198900,Anaheim,33.81434,-117.881294,1856.0,107.16594827586206,0.015755801832210634,0.4266480701574989,0.14278730795963454,1.5439837023456446,7.972191110202455,3.4727914797480395,1.0477860728266306,0.7289657486900241,0.3073063489845613,0.5798680235375048,0.6090862109579227
555,"305 S Quadrilateral Way, Anaheim, CA 92802",818888,Anaheim,33.828539,-117.940711,1945.0,421.02210796915165,0.1468496065237264,0.6341513991554906,0.4999103562338557,1.6511551018513788,5.913969035726972,2.7952146477394986,0.12376009275717553,0.12376009275717553,0.12278363191743492,1.1694647393452269,0.12615251939583932
556,"1800 W Glencrest Ave, Anaheim, CA 92801",5200000,Anaheim,33.840115,-117.945653,13484.0,385.64224265796497,0.13207187790546596,0.3191675477550319,0.8342064217664713,1.4294242938689505,5.640594348239136,2.490466128263091,0.13572991202034118,0.13572991202034118,0.1838060383685991,1.3004718686920276,0.2625310526489115
557,"2158 W Niobe Ave, Anaheim, CA 92804",775000,Anaheim,33.822449,-117.957461,1438.0,538.94297635605,0.1961036829913437,0.8853575108429349,0.03815537260547039,0.97604251645828,4.923210399708467,3.770884030821523,0.2537941140467022,0.12748662860433507,0.6779831786776541,0.35906592728594466,0.35323552378207573
558,"1780 N Azure St, Anaheim, CA 92807",999000,Anaheim,33.869038,-117.815646,2000.0,499.5,0.17962884354920847,0.7221143131576899,0.579292481779185,4.857880472547087,12.580720472275337,5.402280754562814,0.43455431500549097,0.6475697256504289,1.0568105400648387,0.4249232298485936,1.3188797061580908
559,"1485 W Cerritos Ave, Unit 10, Anaheim, CA 92802",658000,Anaheim,33.811516,-117.931565,1446.0,455.0484094052559,0.16106196838783116,0.6147185814972858,0.7702955774782095,1.8526353135991267,5.49571994001705,3.5346356564680073,0.5415884368279821,0.558654654089993,0.3632507819519696,1.464048406093146,0.41808240918873707
560,"191 S Larkwood St, Anaheim, CA 92808",925000,Anaheim,33.866475,-117.740069,1374.0,673.216885007278,0.2521882204848638,0.4363962154919753,0.5055656494742297,4.608699147702828,16.835623957231387,9.717910280916993,0.34062890020781916,0.28839356731273696,0.26127128329165056,1.7891357262943965,1.0637585983160283
561,"901 S Sedona Ln, Anaheim, CA 92808",1250000,Anaheim,33.859672,-117.727238,2065.0,605.3268765133172,0.22383141040119361,1.3061206832649679,1.3003157420659224,4.522798348876287,17.304930715253256,10.443082128893543,0.745775532747145,0.745775532747145,1.1327968346541006,2.296877737882576,0.18962932460115797
562,"2300 S Lewis St, Spc 15, Anaheim, CA 92802",165000,Anaheim,33.792089,-117.896912,1344.0,122.76785714285714,0.02227252463868168,0.31435313085598215,0.8422393060707283,0.23523694296035677,6.501739966428232,4.674204566163535,0.2045852352742091,0.8780912820766875,0.8060003259620178,0.806986834100818,0.4470437287694869
563,"4831 E Copa De Oro Dr, Anaheim, CA 92807",4998888,Anaheim,33.842334,-117.811315,9503.0,526.0326212774913,0.19071118864354875,0.828535832271926,0.7473113975405441,3.573377738100194,12.430315314299897,5.727976156904828,0.7835117734755872,1.4790286001682051,0.8153451836329687,1.4336617745738598,0.6215496822060564
564,"3181 W Rome Ave, Anaheim, CA 92804",849999,Anaheim,33.820736,-118.001843,1374.0,618.6310043668122,0.22938837872745307,0.5197110726516714,0.28306074428423506,2.0691743531621194,2.3676309613819284,5.968004802887673,0.25972792871762623,0.2889975314955271,0.4827363994862909,0.9185957615825501,0.5649488484222821
565,"718 S Camino Grande, Anaheim, CA 92807",739000,Anaheim,33.838975,-117.758198,1539.0,480.1819363222872,0.17155992921195548,1.0495222631204733,1.0860660114106895,2.4798435830639325,15.1109083777628,8.774986103930333,0.5083396472473025,0.5083396472473025,1.9335983394597587,1.0347301192755611,0.6664555609397569
566,"402 S Danbrook Dr, Anaheim, CA 92804",750000,Anaheim,33.826668,-118.008059,1399.0,536.0972122944961,0.1949150428243065,0.4147207296745634,0.752602883818783,2.033534694714457,2.0642792002625585,6.129227304868599,0.18172014480425536,0.16040415915896244,0.2298549906243278,1.395179967934579,0.07769139800971378
567,"584 S Andover Dr, Anaheim, CA 92807",1388000,Anaheim,33.840981,-117.802104,3066.0,452.7071102413568,0.16008403691878964,1.2513109143619898,0.93074509302853,3.1627838230563543,12.859141456115061,6.2656347013995255,0.8624876019527022,1.0930084679200889,1.156514566879878,1.6861700155313706,0.7701781214137792
568,"2040 W Broadway, Anaheim, CA 92804",1349999,Anaheim,33.828613,-117.95404,3137.0,430.34714695569016,0.1507445590422198,0.750835630524351,0.500438397153343,0.9061593770383017,5.152430267610827,3.344823201791615,0.3299950001266396,0.37831190522622715,0.3961391688649793,0.7826440776290817,0.3996315587180563
569,"180 S Hidden Path, Anaheim, CA 92801",1100000,Anaheim,33.831475,-117.964474,2499.0,440.1760704281713,0.15484997782797333,0.6120851163888699,0.7415048383225775,0.27458550159493933,4.587401901640819,3.7247922043541384,0.3019916257252629,0.621839956280428,0.25542422877101917,0.30349631547559974,0.128356774168786
570,"946 E Drapery Ln, Anaheim, CA 92802",799900,Anaheim,33.792294,-117.893196,1572.0,508.84223918575066,0.18353098037645776,0.26528144124823627,0.7481228492683387,0.23350632589036083,6.706438676751514,4.696505991308566,0.10666812102975556,0.6702051786830062,0.801364792079079,0.7923915762111804,0.6459228847640798
571,"314 S Illinois St, Anaheim, CA 92805",950000,Anaheim,33.829968,-117.92492,2031.0,467.7498769079271,0.166367212999624,0.7695740912949895,0.6389089535301427,0.7739802614203551,6.669603017444648,2.214603589461841,0.18004716094784812,0.2047486908561003,0.19656877020719224,0.6357857943044903,0.2803752177629768
572,"2304 W Canopy Ln, Unit 1, Anaheim, CA 92801",1099000,Anaheim,33.830742,-117.963492,2737.0,401.53452685421996,0.13870988686651953,0.6269625350958425,0.6699228403823505,0.3463154084529497,4.634543684227812,3.702906015356283,0.2724888113350054,0.5477895373290068,0.25025742301492393,0.37752049778301555,0.18831924098637604
573,"157 S Donna Ct, Anaheim, CA 92807",1259900,Anaheim,33.855624,-117.770282,2689.0,468.5384901450353,0.16669660691619914,0.8343615319048661,0.05645820158558952,3.54517255831623,14.947306902874185,7.97194873664217,1.05226276343234,0.7642992514572846,1.0522403677909045,0.3216934779524129,0.2058135714965983
574,"1837 W Cerritos Ave, Anaheim, CA 92804",850000,Anaheim,33.810794,-117.947665,2060.0,412.621359223301,0.1433407185145592,0.5014710683827377,0.6091439287941336,1.5631458114705101,4.813266491089869,4.012403320911423,0.3918253386435134,0.5015085489459835,0.6619184184764167,0.6612821689780916,0.09716745317812288
575,"6567 E Camino Vis, Unit 3, Anaheim, CA 92807",730000,Anaheim,33.840098,-117.759958,1540.0,474.02597402597405,0.16898866051437808,0.9284576294739021,0.9625345477071514,2.5314759435209964,15.045797100352145,8.662933305445968,0.5780443907818941,0.5780443907818941,1.8814344266988798,0.9220171028592389,0.7283613363278553
576,"63 Lemon Via, Anaheim, CA 92801",119500,Anaheim,33.863157,-117.912625,1152.0,103.73263888888889,0.014321751308361594,1.6071881772768701,0.3498753327664008,1.5539456320931535,7.087458144939333,0.3498753327664008,0.5902498114116708,0.7314263414015284,0.22615281985712615,0.850065820122261,1.261112586422616
577,"2961 W Lincoln Ave, Unit 1, Anaheim, CA 92801",861281,Anaheim,33.832287,-117.991784,1991.0,432.5871421396283,0.15168017710190704,0.49657749634228227,0.18808621092266684,1.3143869619285289,3.068585249195125,5.116339980752449,0.15588469755380668,0.18545946697504426,0.32007040551078264,1.4128372896122279,0.3736714075794356
578,"1183 N Voyager Ln, Anaheim, CA 92801",699900,Anaheim,33.848159,-117.950016,1461.0,479.05544147843943,0.17108940636101097,0.6826594118342525,0.5695409913287373,1.514737499824309,5.337751239873431,2.48550134282838,0.22587888944003942,0.2632956652604359,0.6271872736173354,1.3471318038507865,0.2872181406133949
579,"1749 N Oxford St, Anaheim, CA 92806",805000,Anaheim,33.867642,-117.859172,1427.0,564.1205325858444,0.20662003431044412,1.3715128928994598,0.7185043634777758,2.889758160310365,10.093861259472238,2.915787362742753,0.2807784386346093,0.6408220124460302,0.9052291521577499,0.7486565156233804,1.9184953405660503
580,"2951 W Lincoln Ave, Unit 8, Anaheim, CA 92801",675200,Anaheim,33.832333,-117.99198,1084.0,622.8782287822878,0.23116239141067554,0.4955876467201694,0.1767354102927335,1.3255614291424123,3.0586599174681495,5.125702016203367,0.14594606597510584,0.17386272079147835,0.3094056026869506,1.4235741645367121,0.38444284201274154
581,"626 S Harbor Blvd, Anaheim, CA 92805",799999,Anaheim,33.826662,-117.91677,1400.0,571.4278571428572,0.20967221266893382,0.533220943546448,0.4720199043312064,0.5309322842556997,6.830721426487636,2.286340617789365,0.21101255417205003,0.21101255417205003,0.1875975429996181,0.5715833387830752,0.12705086352790018
582,"320 N Park Vista St, Spc 36, Anaheim, CA 92806",208000,Anaheim,33.843836,-117.865668,1440.0,144.44444444444446,0.03132656488715043,1.3775744964011782,0.5229396206154825,1.9758844784377365,9.84000750713833,2.6991223992575435,0.44088905728990335,0.45235983702652144,0.8825767776196387,0.9191795480606874,0.7872161579684535
583,"1250 S Brookhurst St, Unit 1017, Anaheim, CA 92804",449900,Anaheim,33.815923,-117.957011,912.0,493.31140350877195,0.17704394395530385,0.8700163511576627,0.3297333436469081,1.3551153350050245,4.77385275245348,4.068809584743538,0.19669810111000874,0.1516940524479094,0.9511567460099956,0.11527216517265233,0.27764175440572675
584,"729 N Clementine St, Anaheim, CA 92805",999999,Anaheim,33.842252,-117.919925,2912.0,343.40625,0.11443043037782663,0.6747955119354115,0.6935882606637293,0.7653994583841931,7.08620887786394,1.328486222810238,0.22280671073755734,0.22280671073755734,0.48994947912328013,0.565422271799834,0.4094035106603707
585,"193 N Magnolia Ave Apt A, Anaheim, CA 92801",645000,Anaheim,33.833563,-117.976716,1238.0,521.0016155088853,0.18860980026144386,0.9494675107066551,0.5873484345573351,0.44958147985151936,3.9283484484218487,4.283023642449645,0.32085538410781034,0.13478117431101413,0.4728499119494372,0.5432691664989119,0.45260710650287583
586,"513 S Dale Ave, Anaheim, CA 92804",795000,Anaheim,33.825553,-117.985004,1724.0,461.1368909512761,0.16360505121737276,0.5698174442885248,0.5431445818181099,1.0527080475639627,3.3588976558507095,4.954476523879129,0.48488583831973936,0.543175163798217,0.5336983298576156,1.090456703667951,0.24919098849392576
587,"226 N Berniece Dr, Anaheim, CA 92801",760000,Anaheim,33.834898,-117.953098,1871.0,406.19989310529127,0.14065855218100629,0.4141657102005677,0.9226213918612726,0.9219464691802031,5.255818800322493,3.0449563205952472,0.3244814055442563,0.4478735197006673,0.3297343371310394,0.8258276953862315,0.1708630393906798
588,"370 S Yorkshire Cir, Anaheim, CA 92808",1950000,Anaheim,33.857466,-117.761344,4040.0,482.6732673267327,0.17260052711017057,1.1368938817239806,0.4515826139359168,3.699571765385833,15.46386228938649,8.48286611869191,0.8611037544808752,1.1254993270064442,0.8400757987770993,0.44726679349739606,0.3328677976097648
589,"2953 W Lincoln Ave, Unit 3, Anaheim, CA 92801",850978,Anaheim,33.832287,-117.991509,2001.0,425.2763618190905,0.14862655531407995,0.5025214652107951,0.20200249626750144,1.2985772547208057,3.083770862790074,5.101601821623994,0.17120766247671007,0.20006900207338107,0.33573155366389285,1.3971724444056808,0.3615453071240651
590,"1442 E Norman Ave, Anaheim, CA 92805",735000,Anaheim,33.823788,-117.893041,1238.0,593.6995153473345,0.21897480661409374,0.2695612390617985,0.2695612390617985,1.2753179893718702,7.752570668139731,2.6027892002738016,0.2695612390617985,0.2695612390617985,0.2695612390617985,0.2695612390617985,0.2042936479615078
591,"924 N Fairview St, Anaheim, CA 92801",780000,Anaheim,33.844801,-117.951472,1562.0,499.359795134443,0.1795702817249636,0.5774900784567436,0.7621659023672057,1.2981416803241916,5.290464967724218,2.6431345325395066,0.29703662866125713,0.29703662866125713,0.5527253458456324,1.1362591427114401,0.33472274851072537
592,"2580 E Lark Ellen Ln, Anaheim, CA 92806",995000,Anaheim,33.81572,-117.878145,1963.0,506.87722873153336,0.1827102200098182,0.39596903707302405,0.31177123212722413,1.7227052501692517,8.176730998113184,3.4768589442236033,1.1801085608849535,0.933006506175915,0.2034275861928373,0.37525811410316856,0.5432050661668113
593,"21 Magnolia Via, Unit 353, Anaheim, CA 92801",100000,Anaheim,33.866009,-117.913655,1080.0,92.5925925925926,0.009668692866404455,1.702925056418645,0.3404489040175706,1.755875373053257,6.997016612064723,0.5460968106992724,0.6080646397215648,0.9364530843918158,0.43000736261555567,0.8577095745142771,1.4441855131885608
594,"127 N Gilbert St, Anaheim, CA 92801",1100000,Anaheim,33.833589,-117.967975,2461.0,446.9727752945957,0.1576888767081981,0.5696081044694326,0.5224249652863765,0.07426150172041569,4.4182959490224984,3.829787111120314,0.4903628931292503,0.5371021929621382,0.05155837628423562,0.10896312163228984,0.06588723017530039
595,"1640 S Carnelian St, Anaheim, CA 92802",899900,Anaheim,33.80662,-117.937207,2708.0,332.31166912850813,0.10979636227693959,0.6556998834211887,0.3267151012557433,1.4039865105755163,5.028616310928042,3.972059891428309,0.31512274861363804,0.2865452620837906,0.5880573080483342,1.3122294280913713,0.36310552091797976
596,"836 N Zeyn St, Anaheim, CA 92805",975000,Anaheim,33.845461,-117.917944,2085.0,467.62589928057554,0.16631542909045355,0.8111934113198651,0.8641164151818798,0.9044103645500704,7.1121301515082145,1.0797841812751234,0.20305046572676183,0.20305046572676183,0.47634738995280257,0.7408676244442323,0.41219437241590395
597,"419 N Alice Way, Unit D, Anaheim, CA 92806",585000,Anaheim,33.844834,-117.867731,1020.0,573.5294117647059,0.21055000583193692,1.4602170286937581,0.5476269265686902,1.8601162568117529,9.787496257014913,2.5630712501800303,0.4704743155615969,0.47422691574835235,0.8069164637544575,0.8469959305940472,0.662321182907899
598,"2957 W Lincoln Ave, Unit 8, Anaheim, CA 92801",765941,Anaheim,33.832287,-117.991509,1339.0,572.0246452576549,0.20992148362362836,0.5025214652107951,0.20200249626750144,1.2985772547208057,3.083770862790074,5.101601821623994,0.17120766247671007,0.20006900207338107,0.33573155366389285,1.3971724444056808,0.3615453071240651
599,"5211 E Fairlee Ct, Anaheim, CA 92807",1365000,Anaheim,33.842892,-117.802916,3099.0,440.4646660212972,0.15497052060896274,1.1259390886971803,0.8408051993262406,3.2965378664355307,12.876662749672967,6.194620136793872,0.8113098196914367,1.0478829388677338,1.0274117502261444,1.5475349103075218,0.6318084282898621
600,"1854 S Janette Ln, Anaheim, CA 92802",1199000,Anaheim,33.801256,-117.928519,1780.0,673.5955056179776,0.2523463655932463,0.7582491638948052,0.5858591677769552,1.414817177665162,5.18897500248171,4.148743844299645,0.5324170963072344,0.34270630082268044,0.1076558568224126,1.8196287085268281,0.299138043543498
601,"705 S Sylvan St, Anaheim, CA 92804",825000,Anaheim,33.822927,-117.979247,1359.0,607.0640176600441,0.224556992599208,0.9192296803077205,0.3916813114910928,0.9063541939281982,3.6729142262649925,4.756946381818831,0.472681367355765,0.4376516545357829,0.5067883490262834,0.9712035453186584,0.21482219097421948
602,"5346 E Westridge Rd, Anaheim, CA 92807",1388000,Anaheim,33.844281,-117.798726,2680.0,517.9104477611941,0.1873186580344423,1.2506007852509584,0.6436238059886232,3.2420858783326647,13.134837125099153,6.415671835173849,0.5645417457837073,0.8011425063107042,1.0769807356432877,1.5789402351106159,0.5363688813309271
603,"2427 E Seville Ave, Anaheim, CA 92806",968888,Anaheim,33.843089,-117.881608,1830.0,529.4469945355191,0.1921373297824362,0.941162120832427,0.3133120985192128,1.0587471052638444,9.091418986903001,1.9193566356628329,0.3516773940048493,0.3516773940048493,0.42293400219779637,0.5340222553204713,0.2098532179103788
604,"506 S Westgate Dr, Anaheim, CA 92806",874999,Anaheim,33.835973,-117.867477,1598.0,547.5588235294117,0.19970241493179816,1.7204557542247576,0.15402313935135453,1.9368884318209911,9.437944458922884,2.866905553530385,0.2901607631163133,0.23660515307277993,1.1535486078083304,0.6087257977005249,0.8623841286350987
605,"6103 E Morningview Dr, Unit 7, Anaheim, CA 92807",975000,Anaheim,33.84151,-117.776295,2388.0,408.29145728643215,0.14153217246148828,0.13529862754152205,0.2723447300693583,2.6037512258185638,14.218633385968944,7.719644101111048,1.0085908385819609,0.2785088025600055,1.4472799227700939,0.9487275435347564,0.7886708005483624
606,"1907 W Folsom St, Anaheim, CA 92804",829000,Anaheim,33.806594,-117.950565,1468.0,564.7138964577657,0.2068678750015832,0.5865451922822201,0.6866530869839564,1.2864940956774145,4.485404382578558,4.345828154337092,0.2308978446765825,0.2308978446765825,0.9574482232121312,0.8069698991626918,0.2453224639681349
607,"9006 Stacie Ln, Unit 26, Anaheim, CA 92804",619000,Anaheim,33.8054,-117.974749,1526.0,405.6356487549148,0.14042287435094927,0.5930027283647202,0.6578997663071371,1.454243579955709,3.6393187398499447,5.300786159844846,0.1689736236247164,0.35886907609636143,0.5066763940846004,0.6698959516120633,0.5767667832639642
608,"1919 W Coronet Ave, Spc 113, Anaheim, CA 92801",245000,Anaheim,33.852784,-117.947532,1680.0,145.83333333333334,0.03190668645913469,0.7843606033047887,0.3846913098808828,1.8436165449180433,5.3423967107035715,2.267037427133201,0.3530978433069708,0.3903342672425416,0.8348722721542277,1.6723257360591701,0.51276561703857
609,"801 S Anaheim Blvd, Unit 106, Anaheim, CA 92805",765000,Anaheim,33.826565,-117.911122,1753.0,436.39475185396464,0.15327056820565504,0.3545233308160488,0.5008192680714401,0.4666705501031513,7.06363039813392,2.2510497978283976,0.36535824883125245,0.3542477312139684,0.12596889583181142,0.6286637810244643,0.2733370493385064
610,"568 S Wayside St, Anaheim, CA 92805",830000,Anaheim,33.832978,-117.893703,1600.0,518.75,0.1876693285369104,0.45467874174784845,0.3263533171524028,0.793525214258396,8.110649748523976,2.0046255834386635,0.1669137032920524,0.1669137032920524,0.2630154408833618,0.591045110836303,0.41571215344672396
611,"3108 W Graciosa Ln, Anaheim, CA 92804",899000,Anaheim,33.828753,-117.99883,1773.0,507.05019740552734,0.18278246686834243,0.31454659039613536,0.41399470498190816,1.7423927936651307,2.6140119650869225,5.5829270384960985,0.32576967936033135,0.3745067340552461,0.21652194582695372,1.4701003277284237,0.4914784255969121
612,"371 S Silverbrook Dr, Anaheim, CA 92807",1415000,Anaheim,33.84819,-117.799294,2631.0,537.8183200304067,0.19563392806653018,1.1094953355942683,0.4227474132647446,3.490590343544761,13.23017416300613,6.345549574898227,0.4592633724837788,0.6812788498318015,0.8536878883001597,1.3230427124004651,0.4166848626642574
613,"531 S Indian Trl, Unit 41, Anaheim, CA 92807",849000,Anaheim,33.843654,-117.787117,1344.0,631.6964285714286,0.23484564351577383,0.5817334326849157,0.5430045845823296,2.9076676714272236,13.714780063721912,7.081877013085052,0.5003649603087579,0.22040637962166115,1.0593576476530353,1.3446551499333552,0.16454738233722738
614,"2817 E Jackson Ave Unit B, Anaheim, CA 92806",574900,Anaheim,33.845072,-117.869922,1266.0,454.1074249605055,0.16066893091761422,1.5734649419221791,0.550936892295479,1.735485523821167,9.698335181544206,2.4407206353125055,0.5314450644779791,0.4922951900282439,0.8018029066472396,0.8449908908879898,0.5356486415961091
615,"1318 W Cara Dr, Anaheim, CA 92805",838000,Anaheim,33.809451,-117.90749,1296.0,646.604938271605,0.24107274213568433,0.46260859158747786,0.31765085188636044,1.207647710032779,6.5074608225805,3.427709571517369,0.3680309939642621,0.6002153129757937,0.31765085188636044,0.6539133311670233,0.28766632013028015
616,"7735 E Northfield Ave, Anaheim, CA 92807",875000,Anaheim,33.872593,-117.769155,1511.0,579.0866975512905,0.21287121481580204,1.2942784473097122,0.9535441906212645,4.71420936977594,15.236790973912058,8.08530409298145,1.1023926256905192,1.3490903214079766,1.099853194422103,1.4011026856727937,1.0810772385832415
617,"2668 W Glencrest Ave, Anaheim, CA 92801",814900,Anaheim,33.840017,-117.979388,1580.0,515.7594936708861,0.1864202313293848,0.5527553578465146,0.4772443157156329,0.7766132953732996,3.709865491917511,4.265403319589553,0.2373432926660331,0.5944665806329095,0.7903133885489791,0.76520441034431,0.11345308510173646
618,"1616 S Euclid St, Spc 26, Anaheim, CA 92802",200000,Anaheim,33.807443,-117.940517,1344.0,148.8095238095238,0.03314980411338669,0.5608051704388848,0.38763979183528624,1.3898791968343895,4.927869796003482,4.003334027153853,0.2016173758558858,0.27953259362956745,0.7606845989331423,1.1247085738511946,0.35940591056573234
619,"1279 N Willet Cir, Anaheim, CA 92807",899999,Anaheim,33.873498,-117.764241,1711.0,526.0075978959673,0.19070073668908194,1.0361912657578358,0.6817361340847543,4.785213150750545,15.51674633883769,8.373126090238616,0.8772576565249921,1.2007662675916941,0.8723549206697458,1.4577597319838735,1.1488842449419667
620,"1635 W Lincoln Ave, Unit 103, Anaheim, CA 92801",769990,Anaheim,33.832819,-117.937449,1799.0,428.0100055586437,0.14976836422055284,0.6647827772456237,0.8464346704688184,1.460322517607198,6.136699909412865,2.449980313647618,0.2542498399290783,0.39325561089687483,0.38233403014829753,1.266231710779115,0.2530840877977581
621,"210 S Vine St, Anaheim, CA 92805",795000,Anaheim,33.836207,-117.905361,1500.0,530.0,0.19236831326998297,0.4381095330020739,0.4365683137547748,0.4349048014118258,7.759773388371092,1.595448793660531,0.4627361517685672,0.16375217266183428,0.47533276957592624,0.5943833225382082,0.404054312519887
622,"104 S Kingsley St, Anaheim, CA 92806",1138000,Anaheim,33.841442,-117.866605,1926.0,590.8618899273105,0.21778956585614961,1.5016726953118684,0.3525269922436476,1.9254421367544055,9.698157049568042,2.7196870502725874,0.4145568390598643,0.34084285238910084,1.0421855180581259,0.8750385904833907,0.7754431051365319
623,"963 E Mason Ln, Unit 88, Anaheim, CA 92805",719000,Anaheim,33.805305,-117.896194,1603.0,448.53399875233936,0.15834098028089605,1.0532682185277311,0.3186068841364811,0.6977686615677644,6.921165688420311,3.7833285658306437,0.3304640535602769,0.3868430091512914,0.11227369401481561,1.0429864993883617,0.8663165430392197
624,"520 S Circulo Lazo, Anaheim, CA 92807",1060000,Anaheim,33.845576,-117.770138,1589.0,667.0862177470107,0.2496275172084598,0.3107449909717185,0.3053344486301889,2.8526026224383365,14.656275784475808,8.031789562949813,1.1270970688160054,0.3244822478472676,1.4289109940348161,0.5221802375977415,0.8065094061655219
625,"1514 W Bushell St, Anaheim, CA 92805",795000,Anaheim,33.810053,-117.908023,1242.0,640.096618357488,0.23835429805440542,0.4593971591930777,0.32978292396075043,1.2592356549667978,6.504660285302479,3.385656581516798,0.3215013149823719,0.6045012888543178,0.32978292396075043,0.6223810223757165,0.23954987695903338
626,"1319 W Cara Dr, Anaheim, CA 92805",1100000,Anaheim,33.809759,-117.907449,1881.0,584.7953216374269,0.21525563592047806,0.4754895805602039,0.3347233684178588,1.2236075624449896,6.52105859180822,3.4065425057933476,0.3600860168266265,0.6155349282426571,0.3347233684178588,0.6327541330253065,0.2682293740955299
627,"2528 E Standish Ave, Anaheim, CA 92806",809000,Anaheim,33.832946,-117.879373,1610.0,502.48447204968943,0.1808754203134549,1.1035680323323869,0.44670100066995316,1.3822625737927856,8.759654418289951,2.4783075161416726,0.35797801138450525,0.6013502215311489,0.553183032587849,0.8583874434166512,0.19387527170065527
628,"1801 E Katella Ave, Apt 1036, Anaheim, CA 92805",435000,Anaheim,33.804332,-117.890222,535.0,813.0841121495328,0.3106090173736324,0.939678856726313,0.20013351056220513,0.6922536233680766,7.195730706273466,3.9286613965466013,0.6761335844629168,0.43614440782871605,0.19942071437138836,1.292776523118762,1.0420269902019883
629,"649 S District Way, Anaheim, CA 92805",682000,Anaheim,33.83001,-117.900696,1308.0,521.4067278287462,0.18877901062643995,0.4389554831267603,0.4389554831267603,0.6919524059292644,7.6710991593708036,2.06391320507051,0.4322744896475263,0.04243215114891822,0.4389554831267603,0.4389554831267603,0.37633089908817274
630,"7915 E Acorn Ct, Anaheim, CA 92808",684000,Anaheim,33.850929,-117.73802,1357.0,504.0530582166544,0.1815305991979951,1.343342220669942,1.151046763010535,3.6877352674392925,16.496908995156602,9.83997524283412,0.7398009855506983,0.7398009855506983,1.22772175410806,1.6250263975617008,0.4529018924706211
631,"250 E Ponderosa Ln, Unit 20, Anaheim, CA 92802",675000,Anaheim,33.792993,-117.904732,1724.0,391.53132250580046,0.13453167313185033,0.7125671954954781,0.732776364703843,0.3892308033252893,6.109042415392564,4.567289475909322,0.6232224674027078,0.5500375733672147,0.6124882696690586,1.0708287979262587,0.11673371798372922
632,"1531 S Dallas Dr, Anaheim, CA 92804",1359000,Anaheim,33.809169,-117.954343,2300.0,590.8695652173913,0.21779277172911954,0.5357474558494449,0.619785362531441,1.504945739750561,4.483260877581688,4.3267870497780105,0.4990045336760487,0.4990045336760487,0.8308711722315997,0.574063090050661,0.31346739638956284
633,"1506 W Cara Dr, Anaheim, CA 92805",788000,Anaheim,33.809759,-117.907449,1242.0,634.4605475040257,0.23600018153041127,0.4754895805602039,0.3347233684178588,1.2236075624449896,6.52105859180822,3.4065425057933476,0.3600860168266265,0.6155349282426571,0.3347233684178588,0.6327541330253065,0.2682293740955299
634,"6519 E Camino Vis, Unit 4, Anaheim, CA 92807",730000,Anaheim,33.839128,-117.76245,1539.0,474.3339831059129,0.16911731206675856,0.8200124523591258,0.8631675351430395,2.4391599607960965,14.887858148517102,8.531931235963116,0.5342478952462687,0.5342478952462687,1.9867913567477853,0.9409231751467179,0.6665764200319024
635,"280 N Avenida Malaga, Anaheim, CA 92808",1195000,Anaheim,33.861795,-117.771451,2863.0,417.3943415997206,0.14533433374282764,1.2282041447130938,0.3490291383250924,3.972025751219139,15.084250594496183,7.902766291473373,0.9408572164990592,0.9505229420001938,0.9426261605541498,0.7131544183998698,0.4142359453131426
636,"1250 N State College Blvd, Spc 76, Anaheim, CA 92806",225000,Anaheim,33.852552,-117.888629,1344.0,167.41071428571428,0.0409192894524617,1.0617273964217178,0.15950691026678895,0.9181575705235442,8.587518424885205,1.2494141811853865,0.08724393198166451,0.2647952444274772,0.8195318201437306,0.7937711314272721,0.5001276382296871
637,"2849 W Lynrose Dr, Anaheim, CA 92804",809999,Anaheim,33.819546,-117.98713,1356.0,597.344395280236,0.22049722751707923,0.6105146218245739,0.26274930625125104,1.3922991211060627,3.213172855765322,5.265365804252079,0.2341923806666507,0.7708697083124022,0.1480124864320056,0.6857147643676962,0.2256634566157798
638,"1176 S Night Star Way, Anaheim, CA 92808",1649950,Anaheim,33.85198,-117.729416,3573.0,461.7828155611531,0.1638748458734197,1.5462394724688542,1.4474216832526001,4.011665495470194,16.98151406366376,10.330149692397548,0.8971897016159729,0.8971897016159729,1.3933320445464226,2.116776732322768,0.5167472691484615
639,"360 S Coyote Ln, Anaheim, CA 92808",2250000,Anaheim,33.85585,-117.759761,4379.0,513.8159397122631,0.18560843307343172,1.1573299556211794,0.548668518889867,3.601710425730967,15.496746697274482,8.576210929942077,0.8941860012856636,1.1210933914878265,0.8726214573665455,0.44070795527061796,0.42973521543444976
640,"513 N Royal St, Anaheim, CA 92806",799000,Anaheim,33.846276,-117.873366,1944.0,411.0082304526749,0.14266693473983458,1.4610641636542858,0.6661581328631871,1.5471366163444051,9.543793091402744,2.2259984544893796,0.4698858315271589,0.5909068388884919,0.773555998576372,0.8277775838289032,0.34251658431703663
641,"364 S Royal Ridge Dr, Anaheim, CA 92807",1749878,Anaheim,33.849785,-117.76996,3883.0,450.6510430079835,0.15922524327080811,0.4890904658580099,0.4341386606830957,3.142500500551919,14.787319361932553,8.013141666103888,1.072764763757452,0.44508954646444204,1.2495467040178014,0.2810036259628078,0.5237217731286876
642,"113 S Level Pl, Anaheim, CA 92804",789900,Anaheim,33.831682,-117.971555,1358.0,581.6642120765832,0.2139478104961241,0.801713044025605,0.6218137229925682,0.1712984391643354,4.189788889695907,4.07315542981252,0.2908715960534013,0.31384586500099815,0.19653879039162814,0.3338065054497044,0.23055214938842483
643,"1225 E Live Oak Ct, Anaheim, CA 92805",949800,Anaheim,33.830427,-117.898963,2031.0,467.65140324963073,0.16632608178034006,0.4386146173330734,0.40911779049627345,0.7790633341066221,7.765745865852588,2.0611936365764283,0.33092738037371633,0.09238648825754397,0.4386146173330734,0.4386146173330734,0.4386146173330734
644,"2674 W Sereno Pl, Anaheim, CA 92804",800000,Anaheim,33.829793,-117.97966,2017.0,396.62865642042635,0.136660765953557,0.9241987549481866,0.8258073632542277,0.6520205079749062,3.7073276615611217,4.547505919568814,0.24610753599872973,0.19779781335417584,0.6775767884704831,0.7919162487326035,0.3632782470598999
645,"1010 E Broadway, Anaheim, CA 92805",1595000,Anaheim,33.835306,-117.903301,3638.0,438.4277075316108,0.15411970844496817,0.4303109743656928,0.3250534021888924,0.5229294273568702,7.802671780331566,1.6755756715319137,0.40238101472294924,0.10715365147321207,0.5387653982109558,0.7065186355416408,0.31410839969309656
646,"1114 W Cara Dr, Anaheim, CA 92805",1030000,Anaheim,33.809759,-117.907449,1881.0,547.5810738968634,0.19971170863286133,0.4754895805602039,0.3347233684178588,1.2236075624449896,6.52105859180822,3.4065425057933476,0.3600860168266265,0.6155349282426571,0.3347233684178588,0.6327541330253065,0.2682293740955299
647,"8267 E Marblehead Way, Anaheim, CA 92808",1700000,Anaheim,33.853077,-117.73066,3522.0,482.68029528676885,0.17260346260145185,1.442247381201525,1.344945625703069,4.034163035126199,16.944456319836238,10.25525975877436,0.7931110735284306,0.7931110735284306,1.2897993718480476,2.045532226710432,0.5037697284204044
648,"2133 W Lullaby Ln, Anaheim, CA 92804",825000,Anaheim,33.811528,-117.956726,1112.0,741.9064748201439,0.2808790057161236,0.6248027224157015,0.559630932150156,1.63056949667001,4.532209225169493,4.285164444462427,0.49002307787252114,0.39868073672567106,0.829138339544882,0.40527351996823835,0.44338684255658484
649,"1551 W Beacon Ave, Anaheim, CA 92802",799888,Anaheim,33.820498,-117.935003,1348.0,593.3887240356083,0.21884499295818505,0.436780362826925,0.4523059143335019,1.5868340730848725,5.796449415836795,3.060343624185631,0.3324560990781137,0.478501788372204,0.359412017337698,1.2282849259638922,0.23671822749095672
650,"7928 E Horizon View Dr, Anaheim, CA 92808",779900,Anaheim,33.851964,-117.738985,1512.0,515.8068783068783,0.18644002330103898,1.2562860735202905,1.0607777189862562,3.723940880939343,16.47365854435518,9.780637351290704,0.6621721566692493,0.6621721566692493,1.1437625850650897,1.566611437073517,0.4961473834963418
651,"5624 E Vis, Del Valle, Anaheim, CA 92807",750000,Anaheim,33.845811,-117.792121,1632.0,459.55882352941177,0.16294591213087503,0.8851880700943017,0.4316154950857707,3.155983067249919,13.521487086122532,6.775678539432252,0.28290113791321975,0.48266999362352947,0.8843812201796261,1.4477605243490013,0.14365410705877335
652,"974 S Country Glen Way, Anaheim, CA 92808",625000,Anaheim,33.852901,-117.724861,1046.0,597.5143403441682,0.22056821145137953,1.687487582684533,1.6237260305278496,4.217159055760161,17.247926326711482,10.58894081335609,1.0551019311145304,1.0551019311145304,1.5234035217792214,2.3787262223436993,0.36748044479668934
653,"211 E Wilhelmina St, Anaheim, CA 92805",750000,Anaheim,33.842712,-117.914329,1034.0,725.3384912959381,0.27395876557051996,0.5714303543421224,0.6521770608360091,0.6622993596105775,7.373563279428821,1.1772265346482251,0.1050594051403373,0.1050594051403373,0.5399742330456738,0.5435096039632993,0.5166966366823614
654,"1527 W Palais Rd, Anaheim, CA 92802",909000,Anaheim,33.814105,-117.933962,1614.0,563.1970260223048,0.2062342971332917,0.4219730676278443,0.5770804918393345,1.826150353145745,5.518464908933036,3.4252588348077815,0.4743915367836386,0.4172593533956127,0.4127420898552085,1.2891621257806418,0.20798137092595081
655,"1540 W Chanticleer Rd, Anaheim, CA 92802",875000,Anaheim,33.812818,-117.93456,1314.0,665.9056316590563,0.2491344011192709,0.4204564304548992,0.601768210523847,1.8561428892531056,5.431789589513598,3.5202035697249796,0.40107284217193434,0.4176753703593917,0.486919624003057,1.2742503983515072,0.28192228555402554
656,"5817 E Avenida Portola, Anaheim, CA 92807",979000,Anaheim,33.850897,-117.785515,1400.0,699.2857142857143,0.26307684544383686,0.7125562016393633,0.22482100102633945,3.352299876315506,14.018834246286326,7.115371129227439,0.18568499057326143,0.18568499057326143,0.6277357931066029,1.114286536309232,0.3536801779841597
657,"689 E Valencia St, Anaheim, CA 92805",780000,Anaheim,33.829668,-117.904923,1390.0,561.1510791366907,0.20537973062838694,0.5594102195556008,0.5629599769789034,0.4807480933910596,7.472004513800205,2.0459600865549703,0.5533559367890699,0.2723383001974759,0.40880351905804807,0.5629599769789034,0.17527335197615296
658,"5946 E Calle Principia, Anaheim, CA 92807",1050000,Anaheim,33.844287,-117.784414,2337.0,449.29396662387677,0.1586584093854276,0.4305296085810009,0.3845032005840071,2.8979393583553668,13.873898595086594,7.229222628511111,0.5644263801049086,0.09240748163488034,1.0643990930408032,1.1865667294966162,0.2863438460498831
659,"1424 E Bassett Way, Anaheim, CA 92805",799888,Anaheim,33.821357,-117.8933,1400.0,571.3485714285714,0.20963909601462452,0.3183124205475089,0.3183124205475089,1.35706041012376,7.643353891346637,2.7555267030468458,0.3183124205475089,0.3183124205475089,0.2883471992400627,0.3183124205475089,0.3183124205475089
660,"114 S Harbor Blvd, Anaheim, CA 92805",569000,Anaheim,33.833976,-117.918816,1528.0,372.3821989528796,0.12653332297834852,0.35333740884840975,0.2514180857326951,0.3911075367371331,7.109982433615448,1.828505562805054,0.24767892377235026,0.025080828205388404,0.058117734177988406,0.19687759179311798,0.3228363262255967
661,"1428 S Sherrill St, Anaheim, CA 92804",995000,Anaheim,33.811297,-117.979379,2272.0,437.9401408450704,0.15391605791906524,1.034284356163371,0.3409590949885722,1.6038569607279576,3.7056926986928773,5.228711145042279,0.25068352300395363,0.26403064333755705,0.5745836719668761,0.35030466148623257,0.49282218391256905
662,"515 N Citron St, Anaheim, CA 92805",989900,Anaheim,33.83825,-117.925229,2359.0,419.6269605765155,0.146266870852759,0.7643251912493491,0.7051477027780169,0.8306795608357759,6.821752199033133,1.722082196908205,0.40648276076562473,0.3834051040242583,0.3363616527158777,0.6014738813609845,0.2909637106065007
663,"306 S Whitestone Dr, Anaheim, CA 92807",1580000,Anaheim,33.852407,-117.769949,3404.0,464.15981198589895,0.16486768764323737,0.6400663248669459,0.27875135601250733,3.323191902954933,14.866068202575102,8.001090054347236,1.0588067890992356,0.580712204449751,1.155635934918484,0.21426142998610243,0.3563424561065827
664,"3157 W Lindacita Ln, Anaheim, CA 92804",744900,Anaheim,33.826762,-118.000876,1565.0,475.9744408945687,0.16980251083157133,0.35285651868906653,0.5943090600012784,1.8844867039678066,2.469501293448107,5.744167082962289,0.5044748144742096,0.3780479236788186,0.39322863471407077,1.3304144270160694,0.37129552904434243
665,"7551 E Hollow Oak Rd, Anaheim, CA 92808",1195000,Anaheim,33.85455,-117.750415,2561.0,466.6146036704412,0.1658930235231074,1.0069369137499813,0.6928436028129745,3.635562683885887,15.944807339544969,9.116193580296347,0.7676237564527258,0.7676237564527258,0.8236065140752912,0.9208832753972461,0.8165393142117569
666,"933 S Roberts St, Anaheim, CA 92802",2500000,Anaheim,33.819003,-117.940107,5008.0,499.20127795527156,0.17950407107564303,0.14081052675763234,0.1415637649544909,1.8897862984030058,5.52589692165318,3.300704717884624,0.04361684143082752,0.23557147083913205,0.05228204876377628,0.9225340855500439,0.27345228693583806
667,"1247 N Minot St, Anaheim, CA 92801",689000,Anaheim,33.850792,-117.966417,1236.0,557.4433656957929,0.20383106495253034,0.2462610521677564,0.611547521369305,1.243326446821994,4.4137014824994925,3.3598534966348024,0.305733559975211,0.2960399904920111,1.2324365834972268,1.0825511069442693,0.5672319226483902
668,"2300 S Lewis St, Spc 163, Anaheim, CA 92802",249000,Anaheim,33.792691,-117.8936,1904.0,130.77731092436974,0.02561797361997751,0.29160746055322334,0.733409711279024,0.1982173822587095,6.694462793189513,4.665227277117445,0.07304338554553597,0.6835740579870989,0.7705259879757029,0.8200700448798031,0.6170162966098992
669,"1015 N Cambria Pl, Anaheim, CA 92801",790000,Anaheim,33.846079,-117.971499,1276.0,619.1222570532915,0.2295935688495728,0.1948531979688294,0.3112088566464271,0.921776878088806,4.137663786298804,3.713473261824771,0.2548280757638024,0.5065275443570241,0.9177416761481781,0.7910572226937657,0.33201649423492263
670,"981 S Sarah Way, Anaheim, CA 92805",740000,Anaheim,33.823536,-117.895931,1346.0,549.777117384844,0.20062896861714438,0.1105795270737505,0.1105795270737505,1.1459910884143298,7.608152267523075,2.566083280474329,0.1105795270737505,0.1105795270737505,0.1105795270737505,0.1105795270737505,0.1105795270737505
671,"348 S San Vicente Ln, Anaheim, CA 92807",940000,Anaheim,33.846779,-117.776133,2278.0,412.64266900790165,0.14334961934589285,0.17943418259363367,0.06849519104434051,2.9617360521237064,14.377868901724971,7.679794571341321,0.7952690941890469,0.08857933364668386,1.1412806596538123,0.6895654491243969,0.7625027546664775
672,"129 N Sweetwater St, Anaheim, CA 92807",800000,Anaheim,33.847962,-117.820578,1492.0,536.1930294906166,0.1949550644724608,0.3283129925620876,0.7668413021769381,4.221574300949078,12.1554142020518,5.134805777204835,0.4600120558783641,1.5328598911009608,0.502211887788256,1.074710405731467,0.7442502191725633
673,"905 S Reseda St, Anaheim, CA 92806",749999,Anaheim,33.827586,-117.888575,1248.0,600.9607371794872,0.2220077284392261,0.576206110713437,0.576206110713437,1.262305157266448,8.11436928711785,2.4697122215360308,0.1707286753068741,0.1707286753068741,0.2693917570060003,0.576206110713437,0.22278859552580052
674,"1250 S Brookhurst St, Unit 1104, Anaheim, CA 92804",300000,Anaheim,33.815923,-117.957011,1172.0,255.9726962457338,0.07791052511119764,0.8700163511576627,0.3297333436469081,1.3551153350050245,4.77385275245348,4.068809584743538,0.19669810111000874,0.1516940524479094,0.9511567460099956,0.11527216517265233,0.27764175440572675
675,"5534 E Vis, Del Dia, Anaheim, CA 92807",775000,Anaheim,33.8468,-117.793833,1646.0,470.83839611178615,0.16765724896288933,0.9959297335492442,0.3704522416532892,3.259579864432663,13.464370241177045,6.669063231687966,0.24952404375771609,0.47992021591355094,0.8279130974342566,1.3772917224885861,0.24265276907830086
676,"120 S Seneca Cir, Unit 10, Anaheim, CA 92805",610000,Anaheim,33.832892,-117.922006,1292.0,472.1362229102167,0.1681993350350669,0.5465501068407598,0.43059571076111763,0.5723794205473658,6.931558888318668,1.962723326674833,0.23670322508895575,0.10703549147596361,0.12209379341000758,0.39481236234903044,0.18548483519482287
677,"511 N Century Dr, Anaheim, CA 92805",789900,Anaheim,33.844206,-117.898873,1581.0,499.6204933586338,0.17967917212277795,0.37831543859267214,0.4844249960742887,0.09483507215950727,8.176348549228285,1.180447057942029,0.28012406581949134,0.2758584952559879,0.5588981419086011,0.5202928530789583,0.3081341742714092
678,"1616 S Euclid St, Spc 20, Anaheim, CA 92802",125000,Anaheim,33.808429,-117.940467,1400.0,89.28571428571429,0.008287451028346673,0.49317864218704643,0.4526762542129411,1.4559271016215645,4.9773187061405055,3.9416034321105884,0.1346672054656065,0.3426994959581021,0.6928053322098232,1.0870347941947704,0.3183508370970493
679,"609 S Iron Horse Ln, Anaheim, CA 92807",825000,Anaheim,33.83876,-117.77826,1538.0,536.4109232769831,0.19504607599028903,0.32654024355728845,0.4852785741911299,2.438256712793432,14.039162747027525,7.640813436785658,1.0837648879583033,0.4275758427622131,1.5608250055005752,1.1681316405378075,0.7742452748885394
680,"435 W Center St, Promenade Unit 330, Anaheim, CA 92805",599000,Anaheim,33.833928,-117.918584,1547.0,387.2010342598578,0.13272296572229583,0.3404641166048876,0.2376836486491932,0.3774653464669256,7.116555221403125,1.8275198502422343,0.2362048391392657,0.03159835049033773,0.056737004425933976,0.18545630367604668,0.31097639556576273
681,"1211 E Wilhelmina St, Anaheim, CA 92805",759000,Anaheim,33.845489,-117.904481,1458.0,520.5761316872428,0.18843208097414896,0.6182910001493179,0.7428732151687654,0.30078390548921546,7.842366054384311,0.9759929264330142,0.19455972658849857,0.181710700492027,0.3131910900820689,0.8524597386591501,0.5498195624286568
682,"2509 W Crescent Ave, Anaheim, CA 92801",750000,Anaheim,33.839825,-117.972205,1259.0,595.7108816521048,0.21981492924153662,0.5452447697153379,0.08622337602427757,0.5143759157982366,4.121805990938663,3.8792598036544805,0.20281814492140535,0.6292623587669306,0.5160537107237173,0.4246350102222786,0.3272587167597571
683,"527 N Anna Dr, Anaheim, CA 92805",6300000,Anaheim,33.846161,-117.896721,10200.0,617.6470588235294,0.22897739694202543,0.5010832388168398,0.4697924142182903,0.2777713859718006,8.253540205099014,1.1362470069168489,0.39021255247289405,0.4439611528011521,0.5421256243954821,0.49304732957298586,0.1635409176795858
684,"8051 E Snowberry Ln, Anaheim, CA 92808",650000,Anaheim,33.862712,-117.740092,1374.0,473.0713245997089,0.1685899153517597,0.5857426154844433,0.5331965280779799,4.367662395336842,16.720970091760165,9.706821614012718,0.08138006383876042,0.08138006383876042,0.43390422060894235,1.6618158391313766,0.9519323527398427
685,"120 W Simmons Ave, Anaheim, CA 92802",885000,Anaheim,33.792517,-117.907203,1563.0,566.2188099808061,0.20749645861663754,0.8310734166784742,0.6086015492524657,0.4635538344134588,5.965554470092243,4.594913626410328,0.7678739560491169,0.41044163683569385,0.4726473102785928,1.140833243587652,0.22997593092741248
686,"752 S Fairway Ln, Anaheim, CA 92807",1250000,Anaheim,33.837894,-117.766525,2436.0,513.1362889983579,0.18532455144423507,0.6694811146155276,0.7283340910632444,2.3278999998647545,14.638705933219924,8.31540572483211,0.5776162619738294,0.5776162619738294,1.963214247155803,1.0007637856460874,0.6621890260777501
687,"732 N East St, Anaheim, CA 92805",3250000,Anaheim,33.846053,-117.904704,6750.0,481.48148148148147,0.17210273302199924,0.655761267595639,0.731003880301176,0.3330399090727825,7.818048526741379,0.9351315571797024,0.23549186957061002,0.2226399102194431,0.2723844784036202,0.8786751834310551,0.5375085702918738
688,"773 S Kroeger St, Anaheim, CA 92805",799800,Anaheim,33.828719,-117.904044,1716.0,466.0839160839161,0.16567136193491958,0.4817015255296837,0.4817015255296837,0.5587088771544488,7.467007987633413,2.1169930617248425,0.4817015255296837,0.2291693116592742,0.4524511108377837,0.4817015255296837,0.16471154628537962
689,"607 S Dale Ave, Anaheim, CA 92804",689000,Anaheim,33.824466,-117.984982,1220.0,564.7540983606557,0.20688466683517615,0.5761410157163854,0.49391010915413597,1.0895440111655983,3.3521418920867254,4.98886639564878,0.510377223282644,0.5771772995246567,0.45904954568397643,1.0155544680953177,0.28600813306387607
690,"314 S Velva Pl, Anaheim, CA 92804",838000,Anaheim,33.828261,-117.946856,1374.0,609.8981077147016,0.2257407566791181,0.6565168384363701,0.4712025424145586,1.3096344936908924,5.560412528328222,3.0519182145265473,0.2463175806199742,0.2463175806199742,0.32656960212258884,0.9168999426142704,0.4329334086009325
691,"1717 N Tympani Cir, Anaheim, CA 92807",775000,Anaheim,33.865877,-117.806351,1372.0,564.868804664723,0.20693257822820724,0.7867611328287208,0.2869827576192783,4.757175375515175,13.129876393050926,5.911939074189414,0.07889534761172001,0.07889534761172001,0.9522392212411883,0.5469370821999633,0.9618878127514249
692,"1875 W Falmouth Ave, Unit 58, Anaheim, CA 92801",530000,Anaheim,33.847788,-117.950644,939.0,564.4302449414271,0.20674939729982428,0.6968272570752863,0.6130570670203476,1.4710179893037547,5.316133991232559,2.527736855246468,0.2571183146576812,0.29515132641433106,0.6333994769785148,1.3031830364990946,0.2563486619322725
693,"801 S Anaheim Blvd, Anaheim, CA 92805",765000,Anaheim,33.826565,-117.911122,1753.0,436.39475185396464,0.15327056820565504,0.3545233308160488,0.5008192680714401,0.4666705501031513,7.06363039813392,2.2510497978283976,0.36535824883125245,0.3542477312139684,0.12596889583181142,0.6286637810244643,0.2733370493385064
694,"5251 E Honeywood Ln, Anaheim, CA 92807",1300000,Anaheim,33.84627,-117.801372,2286.0,568.678915135608,0.20852401386678576,1.0587334958758146,0.6007647890160595,3.4390259968511754,13.062643045801558,6.244460472792499,0.6163292456587777,0.846593044124118,0.9465879985773852,1.3929491910185159,0.4434517926241731
695,"2648 W Madison Cir, Unit 6, Anaheim, CA 92801",659000,Anaheim,33.836093,-117.976355,1539.0,428.20012995451594,0.14984777681020514,0.7739952110444738,0.4370312011735332,0.48052267069784094,3.922857925506899,4.194892983174301,0.19393670465464227,0.3103837154338132,0.49845099319494857,0.5164189212103597,0.3423050704490063
696,"6497 E Via, Estrada, Anaheim, CA 92807",1269900,Anaheim,33.847935,-117.765832,2271.0,559.1809775429326,0.20455684375623842,0.6007585691527744,0.5797311992624524,3.0210703518757853,14.948952737687886,8.260825956729969,1.171616414421684,0.5956588975293255,1.5174129067628597,0.30938325215974055,0.6291298150645919
697,"1054 S Verde St, Anaheim, CA 92805",739000,Anaheim,33.82167,-117.889606,1236.0,597.8964401294498,0.2207278097676061,0.49636114947236376,0.49636114947236376,1.520020701926358,7.830617042252063,2.8118049225102064,0.49636114947236376,0.49636114947236376,0.2492916658984323,0.49636114947236376,0.31576501154386744
698,"1238 N Lombard Dr, Anaheim, CA 92801",840000,Anaheim,33.852168,-117.933933,1596.0,526.3157894736842,0.1908294644685089,0.30558897382229805,0.1930638264732971,1.8095377216037194,6.0905336117699855,1.5205618783775119,0.3816758453100042,0.3816758453100042,0.5664749511319619,1.591204920038429,0.09408581273854863
699,"5406 E Estate Ridge Rd, Anaheim, CA 92807",1249900,Anaheim,33.837511,-117.797491,2654.0,470.9495101733233,0.16770365992100425,1.2456159220203233,1.0427969523126561,2.813314365188387,12.994602795179821,6.576022798848892,0.9185881002359825,0.908639363605898,1.4981588870513673,1.7677274095645894,0.712255121335932
700,"5573 E Vis, Del Rio, Anaheim, CA 92807",675000,Anaheim,33.849189,-117.792797,1116.0,604.8387096774194,0.22362750920038685,0.9923760488829194,0.19874114870932305,3.384354632350675,13.592814392486876,6.709182358454136,0.08542139492540349,0.3220328288435757,0.6560005501364649,1.2133595579833,0.23311186713780627
701,"206 N Sagamore St, Anaheim, CA 92807",799900,Anaheim,33.846414,-117.82567,1300.0,615.3076923076923,0.22800027271598275,0.5717197917137408,0.4695304303045796,4.281334074216955,11.849284854878205,4.863724449409923,0.32079750988312555,1.7833113353564152,0.7840162893978432,1.2860740789780645,0.6459033873182287
702,"120 N Wade Cir, Anaheim, CA 92807",1249900,Anaheim,33.852564,-117.794615,2330.0,536.4377682403433,0.19505728879677697,1.194116815251403,0.03158199117583483,3.639368255395503,13.61006608390107,6.584909283491488,0.2541390978419951,0.35835190183839577,0.4592552143190255,0.9817897307318632,0.4744327659042428
703,"5095 E Greensboro Ln, Anaheim, CA 92807",1275000,Anaheim,33.842777,-117.805269,2319.0,549.8059508408797,0.20064101199223006,1.034769765228226,0.9292638923692937,3.371607463406201,12.75264006973714,6.063073798007566,0.9268080599831511,1.1628680026624394,0.9457535572898794,1.4981707308218821,0.5873788672415965
704,"1406 S Urban St, Anaheim, CA 92805",1049000,Anaheim,33.836467,-117.913622,1881.0,557.6820839978735,0.20393077461092873,0.14333015079304384,0.2277492809126297,0.23654870038467038,7.439008672423731,1.588622858171768,0.11259862492840854,0.05192220844545729,0.14854660847868717,0.1560650968383797,0.08443793972143748
705,"300 S Smokeridge Ter, Anaheim, CA 92807",1199000,Anaheim,33.848471,-117.797594,2235.0,536.4653243847874,0.19506879865473656,1.1949403773336138,0.35305399896242623,3.4602682897687633,13.32560127895907,6.440361419278876,0.3598493234783443,0.584182437169504,0.7879830276674037,1.2831045289797967,0.46807074762176054
706,"1832 W Willow Ave, Anaheim, CA 92804",1499888,Anaheim,33.825988,-117.947254,3976.0,377.2354124748491,0.12856044975577752,0.5267815588595623,0.34036620123649575,1.3348194370307764,5.523394771630393,3.179140109721603,0.34142009460058903,0.34142009460058903,0.3664200005581769,0.7788678560748665,0.3038959232214888
707,"1919 W Coronet Ave, Spc 21, Anaheim, CA 92801",265000,Anaheim,33.852178,-117.94533,1640.0,161.58536585365854,0.038486114043834306,0.7406758005421678,0.2523946761658448,1.9010460340282669,5.4755226925162725,2.1519444153348544,0.22233250230206436,0.29038237659852534,0.7616059988228099,1.7328834238432351,0.6045087221775716
708,"712 S Lost Canyon Rd, Anaheim, CA 92808",1475000,Anaheim,33.858111,-117.751928,3097.0,476.2673555053277,0.1699248576123758,0.7935997777453024,0.4660381083885807,3.847112337142567,15.970196157530998,9.023737347468323,0.5958610398013922,0.7027061937096795,0.5763948365553034,0.9110225623896173,0.8760951415893619
709,"138 N Wade Cir, Anaheim, CA 92807",1195000,Anaheim,33.853011,-117.794705,2330.0,512.8755364806867,0.18521563836871086,1.21505764039681,0.0023616874672868307,3.669672366768193,13.620310128198986,6.577669070417762,0.28058788225925363,0.3661430507903236,0.43374219286902227,0.9513833149798498,0.5023106668521449
710,"613 N Glenwood Pl, Anaheim, CA 92805",1100000,Anaheim,33.84423,-117.902796,1805.0,609.4182825484764,0.22554033968972823,0.4889480085064422,0.6195364676913376,0.1744606350452229,7.961792778025081,1.0871524699363344,0.10524012772255793,0.09277642766576409,0.4271744975297615,0.7328172151460359,0.5239666960914343
711,"6279 E Paseo Aldeano, Anaheim, CA 92807",945000,Anaheim,33.860275,-117.774282,1249.0,756.605284227382,0.28701851513825294,1.1048191079340024,0.34401513239483494,3.876101384723457,14.891268290692105,7.738359877118835,0.7731768464058301,0.7866730077368196,0.7735466078612927,0.7130501556343016,0.4702924634254052
712,"2902 W Rome Ave, Anaheim, CA 92804",998000,Anaheim,33.820515,-117.989281,2226.0,448.33782569631626,0.15825904124131449,0.4756881307972027,0.14239655297144474,1.4472092688369198,3.0897794585675173,5.3378492313401935,0.27795956771465363,0.8017955306150533,0.28183872277356686,0.7798737195331781,0.12381727629793915
713,"5815 E La Palma Ave, Spc 239, Anaheim, CA 92807",205000,Anaheim,33.861224,-117.78435,1440.0,142.36111111111111,0.03045638252917402,1.279072357938976,0.25326042241917623,4.025611573743375,14.416087354458233,7.1604401986424335,0.20244077057696175,0.2081503171432057,0.20670730767757567,0.6539005810215165,1.020907596523736
714,"2300 S Lewis St, Spc 101, Anaheim, CA 92802",215000,Anaheim,33.792177,-117.895344,1512.0,142.1957671957672,0.03038732043727113,0.2750755794881993,0.8135324670000644,0.2091641853305523,6.588076815194348,4.682330931428408,0.13331056238443073,0.7899230318807393,0.7969490501749675,0.793937428400971,0.5294647775886138
715,"1541 E La Palma Ave, Unit A2, Anaheim, CA 92805",449000,Anaheim,33.848251,-117.8963,975.0,460.5128205128205,0.16334438477624702,0.6464250300296591,0.54367199091098,0.4076353708885913,8.235762760995524,1.0429962987902077,0.3408413453599446,0.4663817845708918,0.558192309454031,0.5889140067089276,0.1510336757091878
716,"2025 W Dogwood Ave, Anaheim, CA 92801",650000,Anaheim,33.846402,-117.95298,998.0,651.3026052104209,0.2430348990447115,0.6110737834623617,0.7758463341925521,1.3084118993889466,5.2026111836292275,2.685548827265993,0.36238761398583397,0.36238761398583397,0.6814819649541037,1.1396277738365472,0.194431363660478
717,"1523 W Beacon Ave, Anaheim, CA 92802",865000,Anaheim,33.820508,-117.933767,2054.0,421.12950340798443,0.14689446425950212,0.5071522508556412,0.5206865667601527,1.5278341171773417,5.84461864278241,3.02544128883449,0.4025313906797186,0.5322619143749014,0.42608089550159556,1.2984644347500924,0.23772726622766469
718,"5815 E La Palma Ave, Spc 212, Anaheim, CA 92807",159900,Anaheim,33.860886,-117.785533,1456.0,109.82142857142857,0.01686496284268548,1.2874326853066602,0.18291783600884542,4.018195268711197,14.345436003113317,7.092019616661008,0.13065024845518436,0.13869171770331334,0.13481799762108085,0.6152330522703272,0.9801645139897035
719,"5899 E Trapper Trl, Anaheim, CA 92807",1485000,Anaheim,33.839257,-117.786503,3191.0,465.37135694139766,0.1653737348653991,0.6156699416564247,0.7012047292604493,2.612780053650918,13.619270381789246,7.168763496244901,0.7887020350274637,0.33476764236785295,1.3629551802857376,1.4772464358172137,0.44145031312917327
720,"8504 E Meadowridge St, Anaheim, CA 92808",990000,Anaheim,33.867505,-117.736535,1378.0,718.4325108853411,0.2710742236579606,0.6139998921045688,0.7179685928719931,4.751614572844238,17.0492334686749,9.924634713067476,0.4576607316042694,0.4576607316042694,0.4444837042829351,1.9990227270624115,0.9451900738193306
721,"8448 E Cody Way, Unit 43, Anaheim, CA 92808",660000,Anaheim,33.857739,-117.727872,1046.0,630.9751434034417,0.2345443716942128,1.3458109454253149,1.3135663852883541,4.390888577764764,17.218038151646596,10.407155529525372,0.745576221074892,0.745576221074892,1.176173987616512,2.2356340350188018,0.20034552637485373
722,"5 Walnut Via, Anaheim, CA 92801",69000,Anaheim,33.860027,-117.914301,888.0,77.70270270270271,0.0034493715090956473,1.395746459334852,0.3185386143856088,1.420328669498185,7.03423268881222,0.3185386143856088,0.49052314336754527,0.5627641840057016,0.12575415733148115,1.032243665255698,1.1236125403102104
723,"996 S Ridgecrest Cir, Anaheim, CA 92807",995000,Anaheim,33.840793,-117.746168,1887.0,527.2919978802332,0.19123721454839077,1.6929538762428382,1.650792117469129,2.8502173825116124,15.80080199581082,9.440943173272505,1.0006203373382039,1.0006203373382039,1.7957228815539055,1.404085894781691,0.3926364521104558
724,"1936 W Harle Ave, Anaheim, CA 92804",799000,Anaheim,33.809618,-117.952015,1126.0,709.5914742451155,0.26738143288489785,0.6446288308272302,0.735043032006095,1.5055450548015759,4.590737003894884,4.22208907109537,0.4551886675279366,0.4551886675279366,0.8899012870800964,0.5825306893573848,0.1765531878633192
725,"1709 N Holbrook St, Anaheim, CA 92807",689000,Anaheim,33.866601,-117.813586,1473.0,467.75288526816024,0.16636846955418463,0.8041138767672021,0.48079997405364155,5.000721692586972,12.711229299843124,5.501710823078983,0.23942258477015893,0.49612044322891274,0.893434832390649,0.27160797845834855,1.1228587394587741
726,"1616 S Euclid St, Spc 15, Anaheim, CA 92802",99900,Anaheim,33.808309,-117.940517,1057.0,94.5127719962157,0.010470727862172041,0.5012323429692691,0.4453135112643465,1.4471846910144708,4.969472758715707,3.9502689606543306,0.14237396434540894,0.3339535845673417,0.701009510265722,1.0893927365388416,0.3208217523224381
727,"6525 E Camino Vis, Unit 6, Anaheim, CA 92807",699900,Anaheim,33.839986,-117.761626,1123.0,623.2413178984862,0.23131404920745427,0.840447117901891,0.8777901013594862,2.505396637267554,14.954026249225214,8.56932931991866,0.5803870109777172,0.5803870109777172,1.9158582610202024,0.8963026320385222,0.720529513485712
728,"1850 W Greenleaf Ave Apt D, Anaheim, CA 92801",360000,Anaheim,33.842493,-117.947593,690.0,521.7391304347826,0.18891785105052872,0.4011777469035858,0.7320626094607109,1.3954009261508886,5.518952488195014,2.5066318414782733,0.24680960671519273,0.24680960671519273,0.28662806878989716,1.250516819775527,0.45309662447736276
729,"6831 E Avenida De Santiago, Anaheim, CA 92807",2800000,Anaheim,33.830544,-117.750935,3613.0,774.9792416274564,0.2946930880546152,1.691124677068777,1.742068864807069,2.0991939686321173,15.300468579298537,9.293844995208838,0.5129903884995646,0.5129903884995646,2.4760324807221044,1.7449021350522311,0.5720297647122307
730,"1218 W Cara Dr, Anaheim, CA 92805",849000,Anaheim,33.809563,-117.907741,1242.0,683.5748792270531,0.25651462552521725,0.4541016021838568,0.3134519579893047,1.22235750021309,6.499602052710659,3.419690921766452,0.3516632314812823,0.593984249260574,0.3134519579893047,0.6501239799688987,0.27625098359409117
731,"1302 W Arlington Ave, Anaheim, CA 92801",739000,Anaheim,33.852646,-117.935989,1218.0,606.7323481116584,0.22441845836416005,0.36482770741533266,0.22639335658359028,1.9164063164793128,5.9680493797743,1.6236674317687414,0.3275739643794707,0.4505155090174321,0.6800048872798495,1.6956134149256525,0.2134498572094093
732,"407 N Vine St, Anaheim, CA 92805",1199000,Anaheim,33.840826,-117.907276,2683.0,446.8878121505777,0.1576533886622768,0.5346208284073994,0.630124964636053,0.4487719600260962,7.798829559681482,1.2676440115358079,0.2590691338451768,0.2590691338451768,0.6206633127332147,0.6284290966515009,0.5217155982935352
733,"1618 S Urbana St, Anaheim, CA 92805",780000,Anaheim,33.810362,-117.906919,1338.0,582.9596412556053,0.2144888951125687,0.5236540944045579,0.38603326138908284,1.2411436107067086,6.569377971066921,3.3658661031623143,0.37221839659510614,0.6657562886705265,0.38603326138908284,0.5852657258145291,0.24265283074391014
734,"629 S Dale Ave, Anaheim, CA 92804",749000,Anaheim,33.823586,-117.984974,1229.0,609.4385679414158,0.22554881264543727,0.5876942184939317,0.4586953806238722,1.1226111721212728,3.347328644633711,5.017846541115613,0.4498748466736391,0.6105358908713692,0.3986426650132405,0.9549122213970024,0.2601697642960746
735,"7615 E Calle Durango, Anaheim, CA 92808",1075000,Anaheim,33.863429,-117.76544,2523.0,426.08006341656755,0.14896225145065692,1.120557726557161,0.4866500486890463,4.088435295544997,15.44208547968227,8.251464522549824,0.8438766795856095,1.1900895972445158,0.828875790288802,0.7606515112301673,0.45327127229841546
736,"200 N Grand Ave, Spc 12, Anaheim, CA 92801",295000,Anaheim,33.83294,-117.996522,1440.0,204.86111111111111,0.05656185326846604,0.5162811604228448,0.11878754643098244,1.5862784938988306,2.8221710839368694,5.355849819615969,0.1063568911850546,0.1063568911850546,0.10115949802604726,1.645751136906174,0.6285527947203552
737,"565 S Casita St, Anaheim, CA 92805",709900,Anaheim,33.831882,-117.905884,1300.0,546.0769230769231,0.1990834435893824,0.4329642197621245,0.5062824206623964,0.3685783603866956,7.53319268624082,1.8885742329735986,0.5559339580446576,0.3293300937604803,0.3293300937604803,0.5948244839518063,0.3045803816717861
738,"1725 N Rainwood Cir, Apt B, Anaheim, CA 92807",499000,Anaheim,33.863816,-117.794555,942.0,529.723991507431,0.1922530279639581,1.1979937440532957,0.22984618384376643,4.359683589007344,13.817682687531436,6.57995717908402,0.21987545443931591,0.4309301591664798,0.30104458065566064,0.21216992581566482,1.011828894291451
739,"1218 N Riviera St, Anaheim, CA 92801",725000,Anaheim,33.851499,-117.926742,1285.0,564.2023346303502,0.20665420200451226,0.4716542356313787,0.4728686851089391,1.5124240301766603,6.496890743257288,1.1564031912670996,0.12707512286418066,0.47210425783686444,0.1964402165462537,1.3122736725055573,0.33750628165998287
740,"1506 S Urbana St, Anaheim, CA 92805",849000,Anaheim,33.809259,-117.906311,1550.0,547.741935483871,0.1997788985121046,0.5169426980861037,0.3603247150480852,1.1583365475576348,6.557211038124777,3.4431560792427223,0.37974539572429117,0.6469624784625173,0.3603247150480852,0.6539382788079853,0.32614909849703677
741,"1116 W Locust Ave, Anaheim, CA 92802",895000,Anaheim,33.822551,-117.924598,1658.0,539.8069963811821,0.19646457338309165,0.8525718541420806,0.8037354159880243,1.0331758420435988,6.310887432401072,2.681378273236057,0.46891053310158937,0.46891053310158937,0.2681483688125978,0.9965852249641962,0.37173402269954603
742,"48 Orange Via, Anaheim, CA 92801",79900,Anaheim,33.862785,-117.912253,1120.0,71.33928571428571,0.0007914515732071054,1.6066404017887623,0.3164998409177005,1.5213043167853175,7.113051908615859,0.3164998409177005,0.6066384797811732,0.7016704944166597,0.19878378929846938,0.8401863531962179,1.2279032275409765
743,"6560 E Circulo Dali, Anaheim, CA 92807",775000,Anaheim,33.837372,-117.758967,2072.0,374.03474903474904,0.12722357254326785,1.0532046821310534,1.0971764618028683,2.3617633811612184,15.029273502322907,8.749698577712724,0.39257571587013596,0.39257571587013596,2.050792244228793,1.1174296419815115,0.5491499619685465
744,"8153 E Carnation Way, Anaheim, CA 92808",1225000,Anaheim,33.863704,-117.746081,2216.0,552.797833935018,0.2018906842573406,0.3622581979122288,0.19533950565639555,4.312359240017677,16.44111692884297,9.364552935773881,0.3663350939549834,0.20488705650487027,0.25385676408525787,1.3953775205518937,1.294183740285856
745,"2861 E Jackson Ave Unit D, Anaheim, CA 92806",549000,Anaheim,33.844834,-117.867731,1020.0,538.2352941176471,0.19580809294386617,1.4602170286937581,0.5476269265686902,1.8601162568117529,9.787496257014913,2.5630712501800303,0.4704743155615969,0.47422691574835235,0.8069164637544575,0.8469959305940472,0.662321182907899
746,"1063 S Taylor Ct, Anaheim, CA 92808",1935000,Anaheim,33.84736,-117.734192,3551.0,544.9169248099128,0.1985989267763093,1.658942503245636,1.479428522566279,3.5936926009009804,16.607348701407556,10.076827661879665,1.032631098203862,1.032631098203862,1.5334978863432278,1.8745969812847214,0.4616825940580855
747,"645 S Magnolia Ave, Anaheim, CA 92804",1990000,Anaheim,33.823056,-117.976403,3683.0,540.3203909856096,0.1966790119082691,1.07860054170037,0.32722802657348354,0.8013791430646038,3.8367525487438146,4.613743413630896,0.41465595292981516,0.3971978290223073,0.6397999147443331,0.9772692988727009,0.14581026313838627
748,"2166 W Brownwood Ave, Anaheim, CA 92801",1625000,Anaheim,33.83685,-117.957952,4537.0,358.1661891117478,0.12059547291535408,0.14127379316256694,0.8029523676350636,0.6889446603366695,4.96039216256357,3.2152532379783634,0.06035251306751511,0.3658225067382282,0.33619776446843036,0.5595287859566105,0.41243103236721274
749,"110 N Belinda Cir, Anaheim, CA 92801",1380000,Anaheim,33.832673,-117.965706,3687.0,374.2880390561432,0.1273293686271408,0.562942206327882,0.6349512216008845,0.18670907027767358,4.533072233656228,3.744832721240063,0.3575385619201089,0.6542546585462509,0.16355824356171475,0.1956952443666137,0.08228792578528436
750,"938 N Harbor Blvd, Anaheim, CA 92805",649000,Anaheim,33.846507,-117.923314,1370.0,473.7226277372263,0.16886195655174163,0.5975148100086827,0.6781425132747737,1.1172749666815103,6.7975749031003225,1.2053861751669532,0.28101090237299675,0.48076850143570593,0.17943365672938782,0.9157627794503852,0.09856843576683193
751,"908 S Anaheim Blvd, Anaheim, CA 92805",1095000,Anaheim,33.82291,-117.909306,2334.0,469.1516709511568,0.16695272489367274,0.09932815284488597,0.3778141814054185,0.73281406726303,6.976959657038736,2.4993210520209925,0.12927192502022844,0.14436228408388252,0.08045747081403015,0.3940386861525919,0.24919433764539708
752,"912 S Anaheim Blvd, Anaheim, CA 92805",1095000,Anaheim,33.822762,-117.909257,2234.0,490.1521933751119,0.17572438127204723,0.09063714034983719,0.3695214614846906,0.743383106613037,6.9725697542431515,2.5094935485477774,0.11868919204356915,0.1369891505958126,0.08872157232553818,0.3845934129110789,0.25497323446395714
753,"1888 S Westside Dr, Unit 60, Anaheim, CA 92805",995000,Anaheim,33.802013,-117.894947,2193.0,453.71637026903784,0.16050559224872507,0.9372915897227111,0.407562277111049,0.46915134823955956,6.881177336363542,4.01987468218218,0.4559745945417082,0.5776519115714184,0.12579799346301193,1.277676549297497,0.733011167400674
754,"8470 E Amberwood St, Anaheim, CA 92808",859900,Anaheim,33.869028,-117.739256,1220.0,704.8360655737705,0.2653951579741271,0.4501532699742306,0.6006602556827412,4.789642686752033,16.95613926408484,9.775099468944962,0.5184138786683653,0.3758411099005642,0.29604888541737007,1.9276363335814,1.1317566704725217
755,"1250 S Brookhurst St, Unit 2027, Anaheim, CA 92804",499000,Anaheim,33.815923,-117.957011,1172.0,425.7679180887372,0.1488318722391036,0.8700163511576627,0.3297333436469081,1.3551153350050245,4.77385275245348,4.068809584743538,0.19669810111000874,0.1516940524479094,0.9511567460099956,0.11527216517265233,0.27764175440572675
756,"234 N Pageant St, Anaheim, CA 92807",849900,Anaheim,33.847411,-117.825364,1260.0,674.5238095238095,0.25273410656046014,0.5102772538156208,0.5240381285346801,4.302955361207375,11.899839743832,4.869095459385528,0.35976235320413985,1.736294605538008,0.7276255764463528,1.2172616229768949,0.7164217725698269
757,"6041 E Avenida Arbol, Anaheim, CA 92807",975000,Anaheim,33.856651,-117.781343,2081.0,468.5247477174435,0.166690866875537,0.9213053790758083,0.48720613508095534,3.6819008701262383,14.415423092191622,7.3341940458312145,0.4487917948250469,0.46904902747294613,0.44203157209435784,0.9172194269640477,0.813622622301454
758,"1405 S Sherrill St, Anaheim, CA 92804",824900,Anaheim,33.81221,-117.979979,1530.0,539.1503267973857,0.19619029068540875,1.1041086183875344,0.3253309221382995,1.5594132009567463,3.6620906664402026,5.216233014589091,0.30086219327964053,0.29943577243396785,0.5039856595470763,0.3441346692786053,0.4761262004506823
759,"3139 W Tyler Ave, Anaheim, CA 92801",779000,Anaheim,33.833997,-117.999967,1560.0,499.35897435897436,0.1795699388972839,0.6495111575259237,0.19568880788094,1.5331323252062767,2.641698106957379,5.519378975537003,0.3037356391141158,0.3037356391141158,0.2247886163605775,1.5331323252062767,0.6096991492606413
760,"6401 E Nohl Ranch Rd, Apt 75, Anaheim, CA 92807",899000,Anaheim,33.84068,-117.766075,2145.0,419.1142191142191,0.14605270513690619,0.5858112136820935,0.6292501043415426,2.5212531164625713,14.735841334198705,8.309138493559141,0.7173466988226758,0.6505124784113699,1.8341346975755262,0.8086406870121183,0.8244756705871871
761,"2895 E Cinnamon Pl, Anaheim, CA 92806",950000,Anaheim,33.843161,-117.870812,2260.0,420.353982300885,0.1465705387623967,1.5448628274528633,0.42317449930025786,1.6795986705713861,9.576819584573398,2.4503046019424635,0.39172481079011023,0.3578446649968076,0.9406551316928252,0.9843002055593748,0.5079450577364555
762,"1800 W Gramercy Ave, Apt 41, Anaheim, CA 92801",580000,Anaheim,33.84117,-117.945075,1340.0,432.8358208955224,0.15178404711767465,0.26317872515596774,0.7547171262574589,1.4870243066584068,5.668657409654793,2.4242720291917244,0.08333493785264838,0.08333493785264838,0.13084480488722328,1.3531961110305286,0.2874031798812993
763,"525 N Gilbert St, Spc 151, Anaheim, CA 92801",79000,Anaheim,33.837993,-117.96834,1120.0,70.53571428571429,0.0004558098065590675,0.3878948759407226,0.2459268583845511,0.35437574878751205,4.357762558251086,3.7190870197183847,0.4167972515217958,0.664435669007595,0.34449579514860407,0.20519950554452984,0.26504643556408936
764,"2652 W Madison Cir, Anaheim, CA 92801",659000,Anaheim,33.836093,-117.976355,1551.0,424.8871695680206,0.14846399456332374,0.7739952110444738,0.4370312011735332,0.48052267069784094,3.922857925506899,4.194892983174301,0.19393670465464227,0.3103837154338132,0.49845099319494857,0.5164189212103597,0.3423050704490063
765,"3595 W Greentree Cir, Unit F, Anaheim, CA 92804",525000,Anaheim,33.812742,-118.011481,1025.0,512.1951219512196,0.18493143770327736,1.2877688124217024,0.5725684838776582,2.6848973041132815,1.8763126062153272,5.318387429141983,0.291182142001043,0.14724640374844786,0.8360291712786767,0.7343862608795897,0.1663033001980023
766,"722 S Citron St, Anaheim, CA 92805",759900,Anaheim,33.824922,-117.920233,1318.0,576.5553869499241,0.21181391793842555,0.6424762143035951,0.6611110919059764,0.7438469730218391,6.604309042306756,2.4495059383483393,0.23815210204357595,0.23815210204357595,0.2237746251958925,0.7377313215337643,0.2128076917513308
767,"320 N Park Vista St, Spc 92, Anaheim, CA 92806",229000,Anaheim,33.842922,-117.863648,2160.0,106.01851851851852,0.01527653472891903,1.303403397594364,0.519721364403871,2.0917002577453303,9.895578879669946,2.8307140847306713,0.44796586113356346,0.46613368234003577,0.9655840639896508,0.8702850953183718,0.912097010775717
768,"2283 W Arlington Ave, Anaheim, CA 92801",699900,Anaheim,33.852706,-117.963466,1315.0,532.2433460076046,0.19330533092693705,0.39418565953161233,0.8180497958020113,1.4025549981419463,4.504753113395672,3.171581565408488,0.44751944797020676,0.40847884376387644,1.3891727180571225,1.2343194265628301,0.5617476849876266
769,"6060 E Overland Cir, Anaheim, CA 92807",759000,Anaheim,33.83983,-117.775981,1462.0,519.1518467852258,0.18783717492880464,0.2517554675060608,0.3849354659468938,2.4865623790478657,14.188739034843167,7.756607723849276,1.0886741350995601,0.3928888542866139,1.5590548737506162,1.0329136995147474,0.8497753611323499
770,"795 S Quail Cir, Anaheim, CA 92807",1300000,Anaheim,33.842059,-117.755755,3000.0,433.3333333333333,0.15199185185987796,1.1348202671932193,1.1553965166767444,2.7225111492635468,15.320632877010084,8.882855867057511,0.7490505707975739,0.7490505707975739,1.699963165751082,0.9335687922133579,0.8319793455579375
771,"251 N Magnolia Ave, Unit 2, Anaheim, CA 92801",785000,Anaheim,33.835372,-117.976193,1606.0,488.7920298879203,0.17515625794219872,0.8229471697731551,0.4684978036311964,0.4510867058327457,3.9412793547612135,4.205421083168317,0.24071648431758824,0.26263752179545174,0.47054162597996363,0.5029576478700607,0.39280956662530897
772,"132 S Calle Da Gama, Anaheim, CA 92807",900000,Anaheim,33.850832,-117.786361,1400.0,642.8571428571429,0.23950733471921884,0.7437005266229586,0.1927956555519164,3.3619334730586603,13.973520565642362,7.067247102486043,0.14632623534488645,0.14632623534488645,0.6073539249584778,1.1631418101576927,0.3195490197717527
773,"1325 S Falcon St, Anaheim, CA 92804",924900,Anaheim,33.815277,-117.942927,2664.0,347.18468468468467,0.11600863543544843,0.10782435673009445,0.22400071211128633,1.8897240440804748,5.225261892922602,3.604437159060918,0.2650269495709667,0.1156131480848729,0.25331947351234213,0.7673090766095368,0.2560049745281033
774,"1975 W Ebbtide Way, Anaheim, CA 92801",898888,Anaheim,33.849289,-117.949714,1621.0,554.52683528686,0.2026128665645199,0.7202705879473895,0.5253727165117514,1.5819817625219224,5.320806655999324,2.446137175461105,0.24096100582957014,0.27422985740846056,0.6772324086863126,1.4128180356408828,0.3051933713457713
775,"2529 W Glenhaven Ave, Anaheim, CA 92801",795000,Anaheim,33.844016,-117.973161,1213.0,655.3998351195384,0.24474626089278542,0.25817189433453236,0.2568486941334617,0.8052063030615165,4.045300549204197,3.8424857050263164,0.26387133060883555,0.5894404848573528,0.8049372808638877,0.6961273337059214,0.33885678795084456
776,"481 S Mohler Dr, Anaheim, CA 92808",4060669,Anaheim,33.853525,-117.756148,5622.0,722.2819281394521,0.2726820772498089,1.18047359672033,0.7890487645074058,3.4823414264808203,15.615889495342898,8.789643804914038,0.9524097484277938,1.0794369448838226,0.9312533804240363,0.5844088594044481,0.6741189170155858
777,"5650 E Plz, De Santos, Anaheim, CA 92807",579000,Anaheim,33.846733,-117.790596,982.0,589.6130346232179,0.21726793456657204,0.8149266815117229,0.38390493308625157,3.178920186960139,13.62836688107992,6.854295892244614,0.22471004197352068,0.3901793865118579,0.820537641641404,1.3923449129377419,0.06066781466916701
778,"1801 E Katella Ave, Apt 1033, Anaheim, CA 92805",485000,Anaheim,33.804332,-117.890222,728.0,666.2087912087912,0.24926102708334993,0.939678856726313,0.20013351056220513,0.6922536233680766,7.195730706273466,3.9286613965466013,0.6761335844629168,0.43614440782871605,0.19942071437138836,1.292776523118762,1.0420269902019883
779,"1191 N Leeward Way, Anaheim, CA 92801",688750,Anaheim,33.849996,-117.948919,1621.0,424.89204194941397,0.14846602969628206,0.7237769605514027,0.4682729760378405,1.6487850621947402,5.34267257437905,2.3888962383581758,0.2383823706841111,0.26566971378209553,0.69300166093527,1.479543898126235,0.3596189438658197
780,"193 N Magnolia Ave Apt B, Anaheim, CA 92801",619900,Anaheim,33.833656,-117.978033,980.0,632.5510204081633,0.2352025958707805,0.9524314401631868,0.6269965495038464,0.5255875696289327,3.856463388830246,4.349547017415707,0.3183051912142086,0.15194955382572803,0.5488702991235187,0.6166520994017685,0.5011387569061815
781,"8494 E Foothill St, Anaheim, CA 92808",985000,Anaheim,33.866318,-117.73513,1765.0,558.0736543909348,0.20409432868194372,0.7098297644774487,0.7867765107078374,4.709683835626858,17.08584949459728,10.00098948333203,0.4331887980642071,0.4331887980642071,0.5363151758095097,2.0285363622234143,0.830370234060228
782,"2428 W Greenleaf Ave, Anaheim, CA 92801",729900,Anaheim,33.842299,-117.969233,1309.0,557.6012223071046,0.203896999690892,0.42440552758874023,0.15522187817122027,0.6496676021119264,4.277169238432232,3.6615118811620064,0.3580251234842272,0.76752795710052,0.6424130466831914,0.5060028221623446,0.10240975670991126
783,"525 N Gilbert St, Anaheim, CA 92801",169500,Anaheim,33.838722,-117.96999,1368.0,123.90350877192982,0.022746872164646263,0.46177910017467744,0.1510884879519992,0.40739397236730024,4.257203489129632,3.787546300926723,0.3180622614855113,0.6343996660837811,0.4034995982052363,0.28858826162531764,0.30411239878928525
784,"7820 E Woodsboro Ave, Anaheim, CA 92807",960400,Anaheim,33.871324,-117.766211,1438.0,667.8720445062587,0.249955747247975,1.112349798972593,0.781685014190424,4.630014315374549,15.40962557315229,8.244196786354792,0.9130828717637938,1.258292924514392,0.9101284538718656,1.3034611118582164,0.9885166032977687
